city,state_id,state,county_name,lat,lng,population,density
New York,NY,New York,New York,40.6943,-73.9249,18713220,10715
Los Angeles,CA,California,Los Angeles,34.1139,-118.4068,12750807,3276
Chicago,IL,Illinois,Cook,41.8373,-87.6862,8604203,4574
Miami,FL,Florida,Miami-Dade,25.7839,-80.2102,6445545,5019
Dallas,TX,Texas,Dallas,32.7936,-96.7662,5743938,1526
Philadelphia,PA,Pennsylvania,Philadelphia,40.0077,-75.1339,5649300,4554
Houston,TX,Texas,Harris,29.7863,-95.3889,5464251,1399
Atlanta,GA,Georgia,Fulton,33.7627,-84.4224,5449398,1441
Washington,DC,District of Columbia,District of Columbia,38.9047,-77.0163,5379184,4457
Boston,MA,Massachusetts,Suffolk,42.3188,-71.0846,4688346,5532
Phoenix,AZ,Arizona,Maricopa,33.5722,-112.0891,4219697,1253
Seattle,WA,Washington,King,47.6211,-122.3244,3789215,3469
San Francisco,CA,California,San Francisco,37.7562,-122.443,3592294,7256
Detroit,MI,Michigan,Wayne,42.3834,-83.1024,3506126,1864
San Diego,CA,California,San Diego,32.8312,-117.1225,3220118,1686
Minneapolis,MN,Minnesota,Hennepin,44.9635,-93.2678,2977172,3071
Tampa,FL,Florida,Hillsborough,27.9942,-82.4451,2908063,1353
Denver,CO,Colorado,Denver,39.7621,-104.8759,2876625,1831
Brooklyn,NY,New York,Kings,40.6501,-73.9496,2559903,14221
Queens,NY,New York,Queens,40.7498,-73.7976,2230722,7885
Riverside,CA,California,Riverside,33.9381,-117.3948,2107852,1574
Baltimore,MD,Maryland,Baltimore,39.3051,-76.6144,2106068,2830
Las Vegas,NV,Nevada,Clark,36.2333,-115.2654,2104198,1773
Portland,OR,Oregon,Multnomah,45.5372,-122.65,2074775,1894
San Antonio,TX,Texas,Bexar,29.4658,-98.5253,2049293,1231
St. Louis,MO,Missouri,St. Louis,38.6358,-90.2451,2024074,1879
Sacramento,CA,California,Sacramento,38.5667,-121.4683,1898019,2029
Orlando,FL,Florida,Orange,28.4772,-81.3369,1822394,1003
San Jose,CA,California,Santa Clara,37.3019,-121.8486,1798103,2218
Cleveland,OH,Ohio,Cuyahoga,41.4767,-81.6804,1710093,1893
Pittsburgh,PA,Pennsylvania,Allegheny,40.4396,-79.9762,1703266,2093
Austin,TX,Texas,Travis,30.3004,-97.7522,1687311,1181
Cincinnati,OH,Ohio,Hamilton,39.1413,-84.5061,1662691,1507
Kansas City,MO,Missouri,Jackson,39.1239,-94.5541,1636715,607
Manhattan,NY,New York,New York,40.7834,-73.9662,1628706,27545
Indianapolis,IN,Indiana,Marion,39.7771,-86.1458,1588961,935
Columbus,OH,Ohio,Franklin,39.9862,-82.985,1562009,1582
Charlotte,NC,North Carolina,Mecklenburg,35.208,-80.8304,1512923,1113
Virginia Beach,VA,Virginia,Virginia Beach,36.7335,-76.0435,1478868,709
Bronx,NY,New York,Bronx,40.8501,-73.8662,1418207,12862
Milwaukee,WI,Wisconsin,Milwaukee,43.0642,-87.9673,1365787,2369
Providence,RI,Rhode Island,Providence,41.823,-71.4187,1203230,3773
Jacksonville,FL,Florida,Duval,30.3322,-81.6749,1181496,470
Salt Lake City,UT,Utah,Salt Lake,40.7777,-111.9306,1098526,699
Nashville,TN,Tennessee,Davidson,36.1715,-86.7843,1081903,544
Richmond,VA,Virginia,Richmond,37.5295,-77.4756,1075798,1484
Memphis,TN,Tennessee,Shelby,35.1046,-89.9773,1066967,792
Raleigh,NC,North Carolina,Wake,35.8325,-78.6435,1038738,1254
New Orleans,LA,Louisiana,Orleans,30.0687,-89.9288,1020886,889
Louisville,KY,Kentucky,Jefferson,38.1663,-85.6485,1005654,905
Oklahoma City,OK,Oklahoma,Oklahoma,35.4676,-97.5136,972943,417
Bridgeport,CT,Connecticut,Fairfield,41.1918,-73.1953,924449,3470
Buffalo,NY,New York,Erie,42.9016,-78.8487,914341,2441
Fort Worth,TX,Texas,Tarrant,32.7811,-97.3473,909585,1016
Hartford,CT,Connecticut,Hartford,41.7661,-72.6834,905152,2712
Tucson,AZ,Arizona,Pima,32.1545,-110.8782,888486,889
Omaha,NE,Nebraska,Douglas,41.2627,-96.0522,847819,1309
El Paso,TX,Texas,El Paso,31.8479,-106.4309,843386,1022
Honolulu,HI,Hawaii,Honolulu,21.3294,-157.846,820987,2200
McAllen,TX,Texas,Hidalgo,26.2273,-98.2471,804114,841
Albuquerque,NM,New Mexico,Bernalillo,35.1053,-106.6464,761195,1155
Birmingham,AL,Alabama,Jefferson,33.5277,-86.7987,739573,553
Sarasota,FL,Florida,Sarasota,27.3386,-82.5431,722243,1528
Dayton,OH,Ohio,Montgomery,39.7797,-84.1998,718353,978
Rochester,NY,New York,Monroe,43.168,-77.6162,703952,2220
Fresno,CA,California,Fresno,36.7831,-119.7941,703498,1789
Allentown,PA,Pennsylvania,Lehigh,40.5961,-75.4756,683794,2672
Tulsa,OK,Oklahoma,Tulsa,36.1284,-95.9042,671033,784
Cape Coral,FL,Florida,Lee,26.6446,-81.9956,668382,708
Concord,CA,California,Contra Costa,37.9722,-122.0016,652308,1633
Colorado Springs,CO,Colorado,El Paso,38.8674,-104.7606,642413,946
Charleston,SC,South Carolina,Charleston,32.8153,-79.9628,628377,480
Springfield,MA,Massachusetts,Hampden,42.1155,-72.5395,623401,1860
Grand Rapids,MI,Michigan,Kent,42.962,-85.6562,609314,1734
Mission Viejo,CA,California,Orange,33.6095,-117.655,590249,2058
Albany,NY,New York,Albany,42.6664,-73.7987,586383,1740
Knoxville,TN,Tennessee,Knox,35.9692,-83.9496,586048,733
Bakersfield,CA,California,Kern,35.3529,-119.0359,579295,990
Ogden,UT,Utah,Weber,41.2278,-111.9682,578523,1230
Baton Rouge,LA,Louisiana,East Baton Rouge,30.4418,-91.131,570308,983
Akron,OH,Ohio,Summit,41.0798,-81.5219,565208,1231
New Haven,CT,Connecticut,New Haven,41.3112,-72.9246,564830,2690
Columbia,SC,South Carolina,Richland,34.0376,-80.9037,560041,373
Mesa,AZ,Arizona,Maricopa,33.4017,-111.718,518012,1448
Palm Bay,FL,Florida,Brevard,27.955,-80.6627,507002,456
Provo,UT,Utah,Utah,40.2457,-111.6457,500617,1080
Worcester,MA,Massachusetts,Worcester,42.2705,-71.8079,498328,1916
Murrieta,CA,California,Riverside,33.572,-117.1909,496046,1335
Greenville,SC,South Carolina,Greenville,34.8353,-82.3647,484465,920
Wichita,KS,Kansas,Sedgwick,37.6896,-97.3442,482249,931
Toledo,OH,Ohio,Lucas,41.6639,-83.5822,482111,1308
Staten Island,NY,New York,Richmond,40.5834,-74.1496,476143,3156
Des Moines,IA,Iowa,Polk,41.5725,-93.6105,473957,938
Long Beach,CA,California,Los Angeles,33.7981,-118.1675,462628,3523
Port St. Lucie,FL,Florida,St. Lucie,27.2796,-80.3883,461152,653
Denton,TX,Texas,Denton,33.2176,-97.1419,457177,567
Madison,WI,Wisconsin,Dane,43.0826,-89.3931,447245,1263
Reno,NV,Nevada,Washoe,39.5497,-119.8483,445020,907
Harrisburg,PA,Pennsylvania,Dauphin,40.2752,-76.8843,442289,2343
Little Rock,AR,Arkansas,Pulaski,34.7256,-92.3576,439815,634
Oakland,CA,California,Alameda,37.7903,-122.2165,433031,2991
Durham,NC,North Carolina,Durham,35.9794,-78.9031,424700,959
Winston-Salem,NC,North Carolina,Forsyth,36.1029,-80.2611,422269,721
Bonita Springs,FL,Florida,Lee,26.3559,-81.7861,421291,600
Indio,CA,California,Riverside,33.7346,-116.2346,417059,1066
Palm Coast,FL,Florida,Flagler,29.5392,-81.246,417007,364
Chattanooga,TN,Tennessee,Hamilton,35.0657,-85.2488,415501,493
Spokane,WA,Washington,Spokane,47.6671,-117.433,412275,1247
Syracuse,NY,New York,Onondaga,43.0409,-76.1438,404223,2195
Lancaster,PA,Pennsylvania,Lancaster,40.0421,-76.3012,401524,3166
Arlington,TX,Texas,Tarrant,32.6998,-97.125,398854,1607
Stockton,CA,California,San Joaquin,37.9765,-121.3109,397264,1941
Poughkeepsie,NY,New York,Dutchess,41.6949,-73.921,394760,2290
Augusta,GA,Georgia,Richmond,33.3645,-82.0708,390809,252
Boise,"ID",Idaho,Ada,43.6007,-116.2312,389280,1056
Oxnard,CA,California,Ventura,34.1963,-119.1815,387647,3040
Scranton,PA,Pennsylvania,Lackawanna,41.4044,-75.6649,384250,1169
Modesto,CA,California,Stanislaus,37.6374,-121.0028,383134,1933
Kissimmee,FL,Florida,Osceola,28.3042,-81.4164,382720,1349
Aurora,CO,Colorado,Adams,39.7087,-104.7273,379289,949
Youngstown,OH,Ohio,Mahoning,41.0993,-80.6463,378732,744
Fayetteville,AR,Arkansas,Washington,36.0713,-94.166,351246,625
Anaheim,CA,California,Orange,33.839,-117.8572,350365,2688
Pensacola,FL,Florida,Escambia,30.4427,-87.1886,346921,903
Victorville,CA,California,San Bernardino,34.5277,-117.3536,346789,641
Lancaster,CA,California,Los Angeles,34.6935,-118.1753,343304,645
Greensboro,NC,North Carolina,Guilford,36.0956,-79.8269,343090,887
Corpus Christi,TX,Texas,Nueces,27.726,-97.3755,342464,789
Fort Wayne,IN,Indiana,Allen,41.0886,-85.1437,334122,943
Santa Ana,CA,California,Orange,33.7366,-117.8819,332318,4689
Flint,MI,Michigan,Genesee,43.0235,-83.6922,332190,1103
Fayetteville,NC,North Carolina,Cumberland,35.0846,-78.9776,327435,552
Jackson,MS,Mississippi,Hinds,32.3163,-90.2124,325350,558
Santa Rosa,CA,California,Sonoma,38.4458,-122.7067,324634,1605
Lansing,MI,Michigan,Ingham,42.7142,-84.5601,324286,1164
San Juan,PR,Puerto Rico,San Juan,18.4037,-66.0636,323279,3157
Lexington,KY,Kentucky,Fayette,38.0423,-84.4587,323152,439
Ann Arbor,MI,Michigan,Washtenaw,42.2755,-83.7312,322267,1659
Henderson,NV,Nevada,Clark,36.0133,-115.038,320189,1165
Huntsville,AL,Alabama,Madison,34.6988,-86.6412,319249,361
Mobile,AL,Alabama,Mobile,30.6783,-88.1162,315502,522
Fort Collins,CO,Colorado,Larimer,40.5478,-105.0656,312666,1149
Asheville,NC,North Carolina,Buncombe,35.5704,-82.5536,312507,786
Santa Clarita,CA,California,Los Angeles,34.4175,-118.4964,312446,1162
St. Paul,MN,Minnesota,Ramsey,44.9477,-93.104,308096,2288
Antioch,CA,California,Contra Costa,37.9789,-121.7958,302419,1466
Lakeland,FL,Florida,Polk,28.0556,-81.9545,302284,654
Trenton,NJ,New Jersey,Mercer,40.2236,-74.7641,290716,4238
Lincoln,NE,Nebraska,Lancaster,40.809,-96.6788,289490,1160
Springfield,MO,Missouri,Greene,37.1943,-93.2916,288090,786
Anchorage,AK,Alaska,Anchorage,61.1508,-149.1091,288000,65
Plano,TX,Texas,Collin,33.0502,-96.7487,287677,1549
Irvine,CA,California,Orange,33.6772,-117.7738,287401,1691
Davenport,IA,Iowa,Scott,41.5563,-90.6052,285362,617
Rockford,IL,Illinois,Winnebago,42.2597,-89.0641,282762,873
Newark,NJ,New Jersey,Essex,40.7245,-74.1725,282011,4509
South Bend,IN,Indiana,St. Joseph,41.6767,-86.2696,280498,938
Shreveport,LA,Louisiana,Caddo,32.4656,-93.7956,280062,672
Round Lake Beach,IL,Illinois,Lake,42.379,-88.0811,279381,2073
Savannah,GA,Georgia,Chatham,32.0281,-81.1784,276295,536
Myrtle Beach,SC,South Carolina,Horry,33.7096,-78.8843,275579,568
Chula Vista,CA,California,San Diego,32.6281,-117.0145,274492,2134
Eugene,OR,Oregon,Lane,44.0563,-123.1173,273439,1510
Canton,OH,Ohio,Stark,40.8075,-81.3677,269418,1040
Lubbock,TX,Texas,Lubbock,33.5659,-101.8878,267648,741
Reading,PA,Pennsylvania,Berks,40.34,-75.9267,267155,3466
Winter Haven,FL,Florida,Polk,28.0118,-81.7017,267069,538
Salem,OR,Oregon,Marion,44.9231,-123.0246,266804,1382
St. Petersburg,FL,Florida,Pinellas,27.7931,-82.6652,265351,1656
Lafayette,LA,Louisiana,Lafayette,30.2084,-92.0323,264357,877
Laredo,TX,Texas,Webb,27.5629,-99.4875,262491,958
Jersey City,NJ,New Jersey,Hudson,40.7161,-74.0682,262075,6863
Concord,NC,North Carolina,Cabarrus,35.3933,-80.6366,261801,585
Columbus,GA,Georgia,Muscogee,32.51,-84.8771,261445,349
Chandler,AZ,Arizona,Maricopa,33.2826,-111.8516,261165,1548
McKinney,TX,Texas,Collin,33.2015,-96.6669,258277,1148
Scottsdale,AZ,Arizona,Maricopa,33.6872,-111.8651,258069,541
Killeen,TX,Texas,Bell,31.0754,-97.7296,258009,1073
Tallahassee,FL,Florida,Leon,30.4551,-84.2526,257601,747
Peoria,IL,Illinois,Peoria,40.752,-89.6153,256286,888
Wilmington,NC,North Carolina,New Hanover,34.21,-77.8866,255616,929
Montgomery,AL,Alabama,Montgomery,32.3473,-86.2666,254634,479
Gilbert,AZ,Arizona,Maricopa,33.3101,-111.7463,254114,1432
Glendale,AZ,Arizona,Maricopa,33.5791,-112.2311,252381,1582
North Las Vegas,NV,Nevada,Clark,36.288,-115.0901,251974,992
Chesapeake,VA,Virginia,Chesapeake,36.6778,-76.3024,244835,279
Barnstable,MA,Massachusetts,Barnstable,41.6722,-70.3599,242847,286
Norfolk,VA,Virginia,Norfolk,36.8945,-76.259,242742,1759
Fremont,CA,California,Alameda,37.5265,-121.9852,241110,1201
Kennewick,WA,Washington,Benton,46.1978,-119.1732,240735,1186
Garland,TX,Texas,Dallas,32.91,-96.6305,239928,1623
Irving,TX,Texas,Dallas,32.8584,-96.9702,239798,1380
Visalia,CA,California,Tulare,36.3276,-119.3269,237386,1370
Atlantic City,NJ,New Jersey,Atlantic,39.3797,-74.4527,237054,1354
Paradise,NV,Nevada,Clark,36.0807,-115.1369,235087,1942
Nashua,NH,New Hampshire,Hillsborough,42.7491,-71.491,233917,1118
Arlington,VA,Virginia,Arlington,38.8786,-77.1011,233464,3467
Hialeah,FL,Florida,Miami-Dade,25.8696,-80.3046,233339,4174
York,PA,Pennsylvania,York,39.9651,-76.7315,233184,3204
Evansville,IN,Indiana,Vanderburgh,37.9881,-87.5341,230427,962
Avondale,AZ,Arizona,Maricopa,33.3858,-112.3236,227289,750
Brownsville,TX,Texas,Cameron,25.998,-97.4565,227239,533
Gulfport,MS,Mississippi,Harrison,30.4271,-89.0703,220987,497
Appleton,WI,Wisconsin,Outagamie,44.2779,-88.3891,220570,1156
Bremerton,WA,Washington,Kitsap,47.5436,-122.7122,218400,561
Hickory,NC,North Carolina,Catawba,35.7425,-81.323,218323,536
Tacoma,WA,Washington,Pierce,47.2431,-122.4531,217827,1690
San Bernardino,CA,California,San Bernardino,34.1417,-117.2946,215784,1341
College Station,TX,Texas,Brazos,30.5852,-96.296,215243,890
Kalamazoo,MI,Michigan,Kalamazoo,42.2749,-85.5882,215193,1192
Thousand Oaks,CA,California,Ventura,34.1914,-118.8755,215029,885
Roanoke,VA,Virginia,Roanoke,37.2785,-79.958,214674,900
Fontana,CA,California,San Bernardino,34.0968,-117.4599,214547,1923
Moreno Valley,CA,California,Riverside,33.9244,-117.2045,213055,1604
North Port,FL,Florida,Sarasota,27.0577,-82.1975,209070,274
Fargo,ND,North Dakota,Cass,46.8652,-96.8292,208675,967
Green Bay,WI,Wisconsin,Brown,44.515,-87.9896,207557,887
Spring Valley,NV,Nevada,Clark,36.0987,-115.2619,207127,2404
Amarillo,TX,Texas,Potter,35.1988,-101.8311,205603,756
Portland,ME,Maine,Cumberland,43.6773,-70.2715,203969,1185
Santa Barbara,CA,California,Santa Barbara,34.4285,-119.7202,202401,1808
Gainesville,FL,Florida,Alachua,29.6804,-82.3458,202335,820
Olympia,WA,Washington,Thurston,47.0417,-122.8959,200915,1119
Frisco,TX,Texas,Collin,33.1555,-96.8215,200490,1136
Yonkers,NY,New York,Westchester,40.9466,-73.8674,200370,4295
Norwich,CT,Connecticut,New London,41.5495,-72.0882,200289,533
Glendale,CA,California,Los Angeles,34.1818,-118.2468,199303,2525
Huntington Beach,CA,California,Orange,33.696,-118.0025,199223,2848
Deltona,FL,Florida,Volusia,28.905,-81.2137,198361,960
Aurora,IL,Illinois,Kane,41.7637,-88.2901,197757,1696
Tempe,AZ,Arizona,Maricopa,33.3881,-111.9318,195805,1891
Overland Park,KS,Kansas,Johnson,38.887,-94.687,195494,1003
Grand Prairie,TX,Texas,Dallas,32.6872,-97.0209,194543,1039
Sunrise Manor,NV,Nevada,Clark,36.1785,-115.049,193781,2241
Waco,TX,Texas,McLennan,31.5598,-97.1881,192315,605
Salinas,CA,California,Monterey,36.6884,-121.6317,190972,2562
Waterbury,CT,Connecticut,New Haven,41.5583,-73.0361,189614,1456
Clarksville,TN,Tennessee,Montgomery,36.5695,-87.342,188746,618
Cedar Rapids,IA,Iowa,Linn,41.9665,-91.6782,188038,720
Sioux Falls,SD,South Dakota,Minnehaha,43.5397,-96.732,187239,907
Huntington,WV,West Virginia,Cabell,38.4109,-82.4344,186034,1073
Ontario,CA,California,San Bernardino,34.0393,-117.6064,185010,1429
Hagerstown,MD,Maryland,Washington,39.6401,-77.7217,184755,1272
Erie,PA,Pennsylvania,Erie,42.1168,-80.0733,184484,1926
Vancouver,WA,Washington,Clark,45.6366,-122.5967,184463,1461
Nampa,"ID",Idaho,Canyon,43.5845,-116.5631,184428,1167
Spartanburg,SC,South Carolina,Spartanburg,34.9437,-81.9257,182701,730
Gastonia,NC,North Carolina,Gaston,35.2494,-81.1853,182581,577
Fort Lauderdale,FL,Florida,Broward,26.1412,-80.1464,182437,2036
Lorain,OH,Ohio,Lorain,41.4409,-82.184,180279,1041
Murfreesboro,TN,Tennessee,Rutherford,35.8492,-86.4119,179951,919
High Point,NC,North Carolina,Guilford,35.9907,-79.9938,179913,777
Newport News,VA,Virginia,Newport News,37.1051,-76.5185,179225,1002
Rancho Cucamonga,CA,California,San Bernardino,34.1248,-117.5666,177603,1709
Hemet,CA,California,Riverside,33.7341,-116.9969,177253,1125
Santa Cruz,CA,California,Santa Cruz,36.9789,-122.0346,176428,1957
Danbury,CT,Connecticut,Fairfield,41.4016,-73.471,176030,779
Peoria,AZ,Arizona,Maricopa,33.7844,-112.2989,175961,386
Oceanside,CA,California,San Diego,33.2247,-117.3083,175742,1644
Elk Grove,CA,California,Sacramento,38.416,-121.3842,174775,1605
Pembroke Pines,FL,Florida,Broward,26.0128,-80.3382,173591,2051
Vallejo,CA,California,Solano,38.1133,-122.2358,173256,1524
Garden Grove,CA,California,Orange,33.7787,-117.9601,171644,3690
Enterprise,NV,Nevada,Clark,36.0164,-115.2208,171108,1292
Medford,OR,Oregon,Jackson,42.3372,-122.8537,170876,1243
Cary,NC,North Carolina,Wake,35.782,-78.8191,170282,1119
Marysville,WA,Washington,Snohomish,48.0809,-122.1561,170009,1308
Corona,CA,California,Riverside,33.8616,-117.5649,169868,1640
Ocala,FL,Florida,Marion,29.178,-82.1511,169383,496
Fredericksburg,VA,Virginia,Fredericksburg,38.2992,-77.4872,168909,1072
Gainesville,GA,Georgia,Hall,34.2903,-83.8301,167371,506
Manchester,NH,New Hampshire,Hillsborough,42.9848,-71.4447,162877,1315
Bayamon,PR,Puerto Rico,Bayamón,18.3793,-66.1635,161034,2304
Champaign,IL,Illinois,Champaign,40.1144,-88.2735,159443,1503
Alexandria,VA,Virginia,Alexandria,38.8185,-77.0861,159428,4121
Hayward,CA,California,Alameda,37.6328,-122.0772,159203,1349
Springfield,IL,Illinois,Sangamon,39.771,-89.6538,158509,723
Lakewood,CO,Colorado,Jefferson,39.6977,-105.1168,157935,1416
Lafayette,IN,Indiana,Tippecanoe,40.399,-86.8594,157820,942
Frederick,MD,Maryland,Frederick,39.4336,-77.4141,156787,1172
Lake Charles,LA,Louisiana,Calcasieu,30.2012,-93.2122,156181,674
Odessa,TX,Texas,Ector,31.8831,-102.3406,155998,1052
Tuscaloosa,AL,Alabama,Tuscaloosa,33.2348,-87.5267,155499,631
Warner Robins,GA,Georgia,Houston,32.597,-83.6529,155140,805
Palmdale,CA,California,Los Angeles,34.5944,-118.1057,155079,564
Hollywood,FL,Florida,Broward,26.0294,-80.1679,154817,2192
Midland,TX,Texas,Midland,32.0249,-102.1137,154793,758
Leesburg,FL,Florida,Lake,28.7657,-81.8996,154574,249
Port Arthur,TX,Texas,Jefferson,29.8554,-93.9264,154468,272
Muskegon,MI,Michigan,Muskegon,43.2281,-86.2563,153565,998
Macon,GA,Georgia,Bibb,32.8065,-83.6974,153159,237
Kansas City,KS,Kansas,Wyandotte,39.1234,-94.7443,152960,473
Sunnyvale,CA,California,Santa Clara,37.3836,-122.0256,152703,2676
Pomona,CA,California,Los Angeles,34.0585,-117.7626,151691,2548
Escondido,CA,California,San Diego,33.1347,-117.0722,151625,1568
Pasadena,TX,Texas,Harris,29.6583,-95.1499,151227,1339
New Bedford,MA,Massachusetts,Bristol,41.6697,-70.9428,149910,1840
Fairfield,CA,California,Solano,38.2592,-122.0324,148683,1097
Naperville,IL,Illinois,DuPage,41.7483,-88.1657,148449,1476
Bellevue,WA,Washington,King,47.5951,-122.1535,148164,1709
Binghamton,NY,New York,Broome,42.1014,-75.9093,148145,1635
Elkhart,IN,Indiana,Elkhart,41.6916,-85.9628,147567,734
Topeka,KS,Kansas,Shawnee,39.0346,-95.6955,147458,787
Joliet,IL,Illinois,Will,41.5189,-88.1499,147344,886
Beaumont,TX,Texas,Jefferson,30.0849,-94.1451,146091,547
Paterson,NJ,New Jersey,Passaic,40.9147,-74.1624,145233,6665
Merced,CA,California,Merced,37.3057,-120.4778,145149,1390
Pueblo,CO,Colorado,Pueblo,38.2705,-104.6112,143932,789
Tyler,TX,Texas,Smith,32.3184,-95.3062,143796,718
Torrance,CA,California,Los Angeles,33.8346,-118.3417,143592,2701
Yuma,AZ,Arizona,Yuma,32.5992,-114.5488,142847,313
Metairie,LA,Louisiana,Jefferson,29.9977,-90.178,142135,2359
Surprise,AZ,Arizona,Maricopa,33.68,-112.4524,141664,506
Columbia,MO,Missouri,Boone,38.9478,-92.3256,141645,725
Athens,GA,Georgia,Clarke,33.9508,-83.3689,141532,421
Roseville,CA,California,Placer,38.7703,-121.3196,141500,1239
Thornton,CO,Colorado,Adams,39.9197,-104.9438,141464,1521
Miramar,FL,Florida,Broward,25.9773,-80.3351,141191,1889
Pasadena,CA,California,Los Angeles,34.1597,-118.139,141029,2371
Mesquite,TX,Texas,Dallas,32.7623,-96.5889,140937,1151
Olathe,KS,Kansas,Johnson,38.8832,-94.8198,140545,880
Santa Maria,CA,California,Santa Barbara,34.9334,-120.4432,140545,1815
Houma,LA,Louisiana,Terrebonne,29.5799,-90.7058,140469,874
Carrollton,TX,Texas,Dallas,32.989,-96.8999,139248,1466
Grand Junction,CO,Colorado,Mesa,39.0876,-108.5673,139143,621
Charleston,WV,West Virginia,Kanawha,38.3484,-81.6323,138706,570
Orange,CA,California,Orange,33.8038,-117.8218,138669,2086
Fullerton,CA,California,Orange,33.8841,-117.9279,138632,2386
Greeley,CO,Colorado,Weld,40.4151,-104.7706,137810,858
Carolina,PR,Puerto Rico,Carolina,18.4054,-65.9792,136771,2550
Las Cruces,NM,New Mexico,Doña Ana,32.3265,-106.7892,136254,519
Panama City,FL,Florida,Bay,30.1995,-85.6004,136133,382
Harlingen,TX,Texas,Cameron,26.1917,-97.6976,136037,626
West Valley City,UT,Utah,Salt Lake,40.6889,-112.0115,135248,1472
Hampton,VA,Virginia,Hampton,37.0551,-76.363,134510,1009
Warren,MI,Michigan,Macomb,42.4934,-83.027,133943,1505
Mauldin,SC,South Carolina,Greenville,34.7849,-82.3005,133872,899
Bloomington,IL,Illinois,McLean,40.4757,-88.9703,133846,1100
Coral Springs,FL,Florida,Broward,26.2702,-80.2591,133759,2258
Round Rock,TX,Texas,Williamson,30.5254,-97.666,133372,1421
Yakima,WA,Washington,Yakima,46.5923,-120.5496,133191,1300
Sterling Heights,MI,Michigan,Macomb,42.5809,-83.0305,132438,1403
Kent,WA,Washington,King,47.3887,-122.2129,132319,1513
Burlington,NC,North Carolina,Alamance,36.0758,-79.4686,131043,707
Bellingham,WA,Washington,Whatcom,48.7543,-122.4687,130641,1287
Santa Clara,CA,California,Santa Clara,37.3645,-121.968,130365,2761
Racine,WI,Wisconsin,Racine,42.7274,-87.8135,130142,1915
Greenville,NC,North Carolina,Pitt,35.5956,-77.3768,130118,1012
Stamford,CT,Connecticut,Fairfield,41.1035,-73.5583,129638,1330
Elizabeth,NJ,New Jersey,Union,40.6657,-74.1912,129216,4049
Johnson City,TN,Tennessee,Washington,36.3406,-82.3803,127571,599
Lynchburg,VA,Virginia,Lynchburg,37.4003,-79.1909,126814,647
Simi Valley,CA,California,Ventura,34.2663,-118.749,126589,1167
Fort Smith,AR,Arkansas,Sebastian,35.3493,-94.3695,125354,536
Kenosha,WI,Wisconsin,Kenosha,42.5864,-87.8765,124972,1378
Norman,OK,Oklahoma,Cleveland,35.2335,-97.3471,124880,269
South Lyon,MI,Michigan,Oakland,42.4614,-83.6526,124694,1219
Boulder,CO,Colorado,Boulder,40.0249,-105.2523,124345,1551
Abilene,TX,Texas,Taylor,32.4543,-99.7384,123420,446
Lehigh Acres,FL,Florida,Lee,26.612,-81.6388,123378,514
Pearland,TX,Texas,Brazoria,29.5585,-95.3215,122460,981
Berkeley,CA,California,Alameda,37.8723,-122.276,121363,4473
Richardson,TX,Texas,Dallas,32.9717,-96.7093,121323,1639
Redding,CA,California,Shasta,40.5698,-122.365,121313,599
Arvada,CO,Colorado,Jefferson,39.8321,-105.1511,121272,1207
East Los Angeles,CA,California,Los Angeles,34.0326,-118.1691,121187,6282
St. George,UT,Utah,Washington,37.077,-113.577,120899,449
Billings,MT,Montana,Yellowstone,45.7891,-108.5524,120728,948
Yuba City,CA,California,Sutter,39.1357,-121.6381,120456,1736
Rochester,MN,Minnesota,Olmsted,44.0151,-92.4778,119942,831
Leominster,MA,Massachusetts,Worcester,42.5209,-71.7717,119690,558
Kingsport,TN,Tennessee,Sullivan,36.5224,-82.5453,119666,397
Duluth,MN,Minnesota,St. Louis,46.7756,-92.1392,119476,461
Rock Hill,SC,South Carolina,York,34.9416,-81.0244,119105,750
Gilroy,CA,California,Santa Clara,37.0047,-121.5855,118993,1378
Cambridge,MA,Massachusetts,Middlesex,42.3759,-71.1185,118927,7182
Sugar Land,TX,Texas,Fort Bend,29.5935,-95.6357,118488,1130
Texas City,TX,Texas,Galveston,29.4128,-94.9658,118169,300
Iowa City,IA,Iowa,Johnson,41.6559,-91.5303,118041,1133
Saginaw,MI,Michigan,Saginaw,43.4199,-83.9501,117958,1087
Chico,CA,California,Butte,39.7575,-121.8152,117668,1191
Dover,DE,Delaware,Kent,39.161,-75.5203,117282,622
Clearwater,FL,Florida,Pinellas,27.9789,-82.7622,116946,1731
Coeur d'Alene,"ID",Idaho,Kootenai,47.7041,-116.7935,116834,1260
Seaside,CA,California,Monterey,36.6224,-121.8191,116720,1410
Independence,MO,Missouri,Jackson,39.0871,-94.3501,116672,577
West Jordan,UT,Utah,Salt Lake,40.6024,-112.0008,116480,1391
Brandon,FL,Florida,Hillsborough,27.9367,-82.3,115911,1350
Bloomington,IN,Indiana,Monroe,39.1637,-86.5257,115884,1424
El Monte,CA,California,Los Angeles,34.0739,-118.0291,115487,4663
North Charleston,SC,South Carolina,Charleston,32.9066,-80.0722,115382,574
Carlsbad,CA,California,San Diego,33.1247,-117.2837,115382,1180
St. Cloud,MN,Minnesota,Stearns,45.5339,-94.1718,115028,660
Temecula,CA,California,Riverside,33.4928,-117.1315,114761,1188
Clovis,CA,California,Fresno,36.8278,-119.6831,114584,1741
Meridian,"ID",Idaho,Ada,43.6112,-116.3968,114161,1297
The Woodlands,TX,Texas,Montgomery,30.1738,-95.5134,113819,1017
Ponce,PR,Puerto Rico,Ponce,18.012,-66.6198,113401,1426
Westminster,CO,Colorado,Adams,39.8837,-105.0624,113166,1383
Costa Mesa,CA,California,Orange,33.6667,-117.9135,113003,2762
Monroe,LA,Louisiana,Ouachita,32.5183,-92.0774,112891,623
Utica,NY,New York,Oneida,43.0961,-75.226,112650,1376
Pompano Beach,FL,Florida,Broward,26.2428,-80.1312,112118,1802
West Palm Beach,FL,Florida,Palm Beach,26.7468,-80.1316,111955,803
Waterloo,IA,Iowa,Black Hawk,42.492,-92.3522,111631,423
Everett,WA,Washington,Snohomish,47.9525,-122.1669,111475,1296
El Centro,CA,California,Imperial,32.7867,-115.5586,111425,1478
Santa Fe,NM,New Mexico,Santa Fe,35.6619,-105.9819,111269,625
Downey,CA,California,Los Angeles,33.9379,-118.1312,111126,3457
Spring Hill,FL,Florida,Hernando,28.4797,-82.53,111076,716
Lowell,MA,Massachusetts,Middlesex,42.6389,-71.3217,110997,3149
Centennial,CO,Colorado,Arapahoe,39.5926,-104.8674,110937,1448
Elgin,IL,Illinois,Kane,42.0385,-88.3229,110849,1141
Richmond,CA,California,Contra Costa,37.9477,-122.339,110567,1420
Broken Arrow,OK,Oklahoma,Tulsa,36.0365,-95.7809,110198,688
Miami Gardens,FL,Florida,Miami-Dade,25.9433,-80.2426,110001,2329
Bend,OR,Oregon,Deschutes,44.0562,-121.3087,109802,1171
Burlington,VT,Vermont,Chittenden,44.4877,-73.2314,109763,1604
Jurupa Valley,CA,California,Riverside,34.001,-117.4705,109527,984
Sandy Springs,GA,Georgia,Fulton,33.9366,-84.3703,109452,1122
Gresham,OR,Oregon,Multnomah,45.5023,-122.4413,109381,1808
Lewisville,TX,Texas,Denton,33.0452,-96.9823,109212,1148
Hillsboro,OR,Oregon,Washington,45.5272,-122.9361,109128,1640
San Buenaventura,CA,California,Ventura,34.2741,-119.2314,109106,1925
Jacksonville,NC,North Carolina,Onslow,34.7288,-77.3941,108856,574
Pottstown,PA,Pennsylvania,Montgomery,40.2507,-75.6444,108758,1798
Inglewood,CA,California,Los Angeles,33.9566,-118.3444,108151,4604
League City,TX,Texas,Galveston,29.4873,-95.1087,107536,809
Eau Claire,WI,Wisconsin,Eau Claire,44.8199,-91.4949,107404,812
Turlock,CA,California,Stanislaus,37.5053,-120.8588,107317,1679
Temple,TX,Texas,Bell,31.1076,-97.3894,107258,429
Sioux City,IA,Iowa,Woodbury,42.4959,-96.3901,106455,545
Salisbury,MD,Maryland,Wicomico,38.3756,-75.5867,106447,927
Davie,FL,Florida,Broward,26.0789,-80.287,106306,1175
Daly City,CA,California,San Mateo,37.6862,-122.4685,106280,5370
Highlands Ranch,CO,Colorado,Douglas,39.5419,-104.9708,105631,1680
Allen,TX,Texas,Collin,33.1088,-96.6735,105623,1544
West Covina,CA,California,Los Angeles,34.0555,-117.9112,105101,2529
Sparks,NV,Nevada,Washoe,39.5729,-119.7157,105006,1131
Wichita Falls,TX,Texas,Wichita,33.9072,-98.5291,104683,561
San Mateo,CA,California,San Mateo,37.5521,-122.3122,104430,3312
Columbia,MD,Maryland,Howard,39.2004,-76.859,103991,1257
Norwalk,CA,California,Los Angeles,33.9069,-118.0829,103949,4133
Rialto,CA,California,San Bernardino,34.1174,-117.3894,103526,1665
Manteca,CA,California,San Joaquin,37.7927,-121.2264,103420,1498
Arden-Arcade,CA,California,Sacramento,38.6034,-121.381,102864,2235
El Cajon,CA,California,San Diego,32.8017,-116.9605,102708,2732
Burbank,CA,California,Los Angeles,34.1879,-118.3235,102511,2285
Longmont,CO,Colorado,Boulder,40.1686,-105.1005,102474,1306
Renton,WA,Washington,King,47.4784,-122.1919,101751,1676
Vista,CA,California,San Diego,33.1896,-117.2386,101638,2093
Logan,UT,Utah,Cache,41.74,-111.8419,101616,1126
Prescott Valley,AZ,Arizona,Yavapai,34.5983,-112.3176,101539,439
Vacaville,CA,California,Solano,38.359,-121.968,101444,1330
Edinburg,TX,Texas,Hidalgo,26.3197,-98.1596,101170,873
Carmel,IN,Indiana,Hamilton,39.965,-86.146,101068,795
Spokane Valley,WA,Washington,Spokane,47.6626,-117.2346,101060,1034
San Angelo,TX,Texas,Tom Green,31.4424,-100.4506,101004,653
La Crosse,WI,Wisconsin,La Crosse,43.824,-91.2268,100693,911
Idaho Falls,"ID",Idaho,Bonneville,43.4872,-112.0362,100442,1011
Holland,MI,Michigan,Ottawa,42.7677,-86.0985,100432,768
Charlottesville,VA,Virginia,Charlottesville,38.0375,-78.4855,100416,1781
Longview,TX,Texas,Gregg,32.5193,-94.7621,100330,565
Tracy,CA,California,San Joaquin,37.7269,-121.4522,100049,1412
Boca Raton,FL,Florida,Palm Beach,26.3752,-80.108,99805,1320
Lafayette,CO,Colorado,Boulder,39.9949,-105.0997,99645,1257
Lee's Summit,MO,Missouri,Jackson,38.9172,-94.3816,99357,601
Rio Rancho,NM,New Mexico,Sandoval,35.2872,-106.6981,99178,370
South Fulton,GA,Georgia,Fulton,33.6269,-84.5802,99155,451
Beaverton,OR,Oregon,Washington,45.4779,-122.8168,99037,1952
Lawrence,KS,Kansas,Douglas,38.9597,-95.2641,98648,1110
Bismarck,ND,North Dakota,Burleigh,46.8144,-100.7694,98345,827
Orem,UT,Utah,Utah,40.2983,-111.6992,97828,2044
Middletown,OH,Ohio,Butler,39.5032,-84.366,97730,720
San Tan Valley,AZ,Arizona,Pinal,33.1879,-111.5472,96692,1018
San Marcos,CA,California,San Diego,33.135,-117.1744,96664,1532
Sandy,UT,Utah,Salt Lake,40.571,-111.8505,96380,1544
Federal Way,WA,Washington,King,47.3091,-122.3358,96289,1667
Mandeville,LA,Louisiana,St. Tammany,30.3751,-90.0904,95968,676
Hesperia,CA,California,San Bernardino,34.3975,-117.3147,95750,508
Brockton,MA,Massachusetts,Plymouth,42.0821,-71.0242,95708,1732
Compton,CA,California,Los Angeles,33.893,-118.2275,95605,3680
Riverview,FL,Florida,Hillsborough,27.8227,-82.3023,95338,796
Fishers,IN,Indiana,Hamilton,39.9589,-85.9661,95310,1037
Sunrise,FL,Florida,Broward,26.1547,-80.2997,95166,2270
Bowling Green,KY,Kentucky,Warren,36.9719,-86.4373,95135,690
Roswell,GA,Georgia,Fulton,34.0391,-84.3513,94763,898
Menifee,CA,California,Riverside,33.6909,-117.1849,94756,787
Plantation,FL,Florida,Broward,26.126,-80.2617,94580,1685
Dover,NH,New Hampshire,Strafford,43.1887,-70.8845,94563,464
Quincy,MA,Massachusetts,Norfolk,42.2516,-71.0183,94470,2200
Portsmouth,VA,Virginia,Portsmouth,36.8468,-76.354,94398,1094
Chino,CA,California,San Bernardino,33.9836,-117.6654,94371,1229
Lynn,MA,Massachusetts,Essex,42.4779,-70.9663,94299,3388
Edmond,OK,Oklahoma,Oklahoma,35.6689,-97.4159,94054,428
Hanford,CA,California,Kings,36.3274,-119.6549,94028,1280
Dearborn,MI,Michigan,Wayne,42.3127,-83.2129,93932,1496
Livonia,MI,Michigan,Wayne,42.3972,-83.3733,93665,1013
South Gate,CA,California,Los Angeles,33.9448,-118.1926,93444,4985
Vineland,NJ,New Jersey,Cumberland,39.4653,-74.9981,93239,335
Florence,SC,South Carolina,Florence,34.1781,-79.7877,93131,657
Portsmouth,NH,New Hampshire,Rockingham,43.058,-70.7826,93069,540
Slidell,LA,Louisiana,St. Tammany,30.2881,-89.7826,93040,695
Lawton,OK,Oklahoma,Comanche,34.6176,-98.4203,93025,441
Kirkland,WA,Washington,King,47.6974,-122.2054,93010,2016
Missoula,MT,Montana,Missoula,46.875,-114.0214,92895,845
Auburn,AL,Alabama,Lee,32.6087,-85.4899,92777,425
Rapid City,SD,South Dakota,Pennington,44.0716,-103.2204,92664,546
Terre Haute,IN,Indiana,Vigo,39.4654,-87.3763,92490,677
Suffolk,VA,Virginia,Suffolk,36.6953,-76.6398,92108,89
Blacksburg,VA,Virginia,Montgomery,37.23,-80.4279,91888,865
Mount Pleasant,SC,South Carolina,Charleston,32.8538,-79.8204,91684,717
Carson,CA,California,Los Angeles,33.8374,-118.2559,91394,1883
Conroe,TX,Texas,Montgomery,30.3239,-95.4825,91079,488
Alafaya,FL,Florida,Orange,28.5278,-81.1865,91068,1156
Livermore,CA,California,Alameda,37.6862,-121.7608,90923,1288
Westminster,CA,California,Orange,33.7523,-117.9938,90643,3486
Germantown,MD,Maryland,Montgomery,39.1755,-77.2643,90582,2053
Santa Monica,CA,California,Los Angeles,34.0232,-118.4813,90401,4147
New Braunfels,TX,Texas,Comal,29.6994,-98.1148,90209,770
Fall River,MA,Massachusetts,Bristol,41.7137,-71.1014,89541,1044
Albany,GA,Georgia,Dougherty,31.5776,-84.1762,89217,505
Miami Beach,FL,Florida,Miami-Dade,25.8171,-80.1396,88885,4461
Norwalk,CT,Connecticut,Fairfield,41.1144,-73.4215,88816,1498
San Leandro,CA,California,Alameda,37.7071,-122.1601,88815,2570
O'Fallon,MO,Missouri,St. Charles,38.785,-90.7175,88673,1149
Newton,MA,Massachusetts,Middlesex,42.3316,-71.2085,88414,1914
Muncie,IN,Indiana,Delaware,40.1989,-85.395,87879,958
Citrus Heights,CA,California,Sacramento,38.6948,-121.288,87796,2381
State College,PA,Pennsylvania,Centre,40.7909,-77.8568,87723,3572
Town 'n' Country,FL,Florida,Hillsborough,28.0108,-82.576,87338,1526
Decatur,IL,Illinois,Macon,39.8556,-88.9337,87236,645
Jackson,MI,Michigan,Jackson,42.2431,-84.4037,87110,1153
Fort Myers,FL,Florida,Lee,26.6195,-81.8303,87103,844
Goodyear,AZ,Arizona,Maricopa,33.2613,-112.3622,86840,175
Dalton,GA,Georgia,Whitfield,34.769,-84.9712,86628,632
Bryan,TX,Texas,Brazos,30.6657,-96.3668,86276,726
Waukegan,IL,Illinois,Lake,42.3697,-87.8716,86075,1370
Hawthorne,CA,California,Los Angeles,33.9146,-118.3476,86068,5463
Anderson,IN,Indiana,Madison,40.0891,-85.6893,85992,508
Redwood City,CA,California,San Mateo,37.5026,-122.2252,85925,1721
Hoover,AL,Alabama,Jefferson,33.3754,-86.8064,85768,691
Lake Forest,CA,California,Orange,33.6606,-117.6712,85531,1985
Napa,CA,California,Napa,38.2976,-122.3011,85239,1679
Whittier,CA,California,Los Angeles,33.9678,-118.0188,85098,2242
Clifton,NJ,New Jersey,Passaic,40.8631,-74.1575,85052,2913
Largo,FL,Florida,Pinellas,27.9088,-82.7711,84948,1773
Bloomington,MN,Minnesota,Hennepin,44.8306,-93.3151,84943,945
Johns Creek,GA,Georgia,Fulton,34.0333,-84.2027,84579,1059
Newport Beach,CA,California,Orange,33.6151,-117.8669,84534,1370
Mission,TX,Texas,Hidalgo,26.2041,-98.3251,84331,916
Milpitas,CA,California,Santa Clara,37.4339,-121.8921,84196,2381
Troy,MI,Michigan,Oakland,42.5818,-83.1457,84092,970
Madera,CA,California,Madera,36.9631,-120.0782,84086,1557
Joplin,MO,Missouri,Jasper,37.0758,-94.5018,84048,515
Chino Hills,CA,California,San Bernardino,33.9508,-117.7253,83853,724
Alhambra,CA,California,Los Angeles,34.084,-118.1355,83750,4237
Franklin,TN,Tennessee,Williamson,35.9216,-86.8525,83097,771
Melbourne,FL,Florida,Brevard,28.1085,-80.6627,83029,727
Port Huron,MI,Michigan,St. Clair,42.9822,-82.4387,82970,1369
Springfield,OH,Ohio,Clark,39.9297,-83.7957,82820,883
Mountain View,CA,California,Santa Clara,37.4,-122.0796,82739,2664
Zephyrhills,FL,Florida,Pasco,28.2408,-82.1796,82476,670
St. Augustine,FL,Florida,St. Johns,29.8977,-81.31,82180,629
Flagstaff,AZ,Arizona,Coconino,35.1872,-111.6195,81974,438
Buena Park,CA,California,Orange,33.8572,-118.0046,81788,3002
Pleasanton,CA,California,Alameda,37.6663,-121.8805,81777,1307
Silver Spring,MD,Maryland,Montgomery,39.0028,-77.0207,81773,4004
Atascocita,TX,Texas,Harris,29.9777,-95.1953,81557,1320
Westland,MI,Michigan,Wayne,42.3192,-83.3805,81511,1540
Auburn,WA,Washington,King,47.3039,-122.2108,81464,1063
Cranston,RI,Rhode Island,Providence,41.7658,-71.4857,81456,1109
Somerville,MA,Massachusetts,Middlesex,42.3908,-71.1013,81360,7619
Folsom,CA,California,Sacramento,38.6668,-121.1422,81328,1126
Springdale,AR,Arkansas,Washington,36.1899,-94.1574,81125,668
Deerfield Beach,FL,Florida,Broward,26.305,-80.1277,81066,2093
Warwick,RI,Rhode Island,Kent,41.7062,-71.4334,81004,893
Cicero,IL,Illinois,Cook,41.8445,-87.7593,80796,5318
Farmington Hills,MI,Michigan,Oakland,42.486,-83.3771,80612,935
Newark,OH,Ohio,Licking,40.0705,-82.4251,80451,930
Williamsburg,VA,Virginia,Williamsburg,37.2692,-76.7076,80441,645
Brooklyn Park,MN,Minnesota,Hennepin,45.1112,-93.3505,80389,1190
Hattiesburg,MS,Mississippi,Forrest,31.3074,-89.317,80138,331
Alexandria,LA,Louisiana,Rapides,31.2923,-92.4702,80129,625
Lawrence,MA,Massachusetts,Essex,42.7003,-71.1626,80028,4458
Florence,AL,Alabama,Lauderdale,34.8303,-87.6654,79964,594
Valdosta,GA,Georgia,Lowndes,30.8502,-83.2788,79820,606
Plymouth,MN,Minnesota,Hennepin,45.0225,-93.4618,79768,941
Buckeye,AZ,Arizona,Maricopa,33.4314,-112.6429,79620,78
Georgetown,TX,Texas,Williamson,30.6668,-97.6953,79604,560
Cheyenne,WY,Wyoming,Laramie,41.1351,-104.79,79484,771
Cedar Park,TX,Texas,Williamson,30.5106,-97.8196,79462,1207
The Villages,FL,Florida,Sumter,28.9021,-81.9888,79372,978
Kokomo,IN,Indiana,Howard,40.464,-86.1277,79351,610
Tustin,CA,California,Orange,33.7309,-117.8106,79348,2755
Lakewood,CA,California,Los Angeles,33.8471,-118.1221,79307,3253
Perris,CA,California,Riverside,33.7899,-117.2233,79291,970
St. Joseph,MO,Missouri,Buchanan,39.7599,-94.821,79161,656
Flower Mound,TX,Texas,Denton,33.0344,-97.1146,79135,728
Pharr,TX,Texas,Hidalgo,26.1685,-98.1904,79112,1292
Pine Hills,FL,Florida,Orange,28.5818,-81.4693,78995,2500
Alton,IL,Illinois,Madison,38.9034,-90.1523,78905,652
Loveland,CO,Colorado,Larimer,40.4166,-105.0623,78877,885
Boynton Beach,FL,Florida,Palm Beach,26.5281,-80.0811,78679,1880
New Rochelle,NY,New York,Westchester,40.9305,-73.7836,78557,2930
Anderson,SC,South Carolina,Anderson,34.5211,-82.6479,78512,736
Jonesboro,AR,Arkansas,Craighead,35.8212,-90.6791,78394,377
Lebanon,PA,Pennsylvania,Lebanon,40.3412,-76.4227,78302,2397
Parma,OH,Ohio,Cuyahoga,41.3843,-81.7286,78103,1506
Layton,UT,Utah,Davis,41.0769,-111.9621,78014,1339
Elizabethtown,KY,Kentucky,Hardin,37.703,-85.877,78002,437
Texarkana,TX,Texas,Bowie,33.4487,-94.0815,77964,482
Alameda,CA,California,Alameda,37.767,-122.2672,77624,2868
Kankakee,IL,Illinois,Kankakee,41.1019,-87.8643,77429,668
Watsonville,CA,California,Santa Cruz,36.9206,-121.7706,77352,3109
Porterville,CA,California,Tulare,36.0644,-119.0338,77318,1236
Baytown,TX,Texas,Harris,29.7586,-94.9669,77192,807
Upland,CA,California,San Bernardino,34.1178,-117.6603,77140,1907
Davis,CA,California,Yolo,38.5552,-121.7365,76997,2710
Camarillo,CA,California,Ventura,34.223,-119.0322,76931,1371
South Jordan,UT,Utah,Salt Lake,40.557,-111.9782,76598,1331
Battle Creek,MI,Michigan,Calhoun,42.2986,-85.2296,76514,463
Bellflower,CA,California,Los Angeles,33.888,-118.1271,76435,4822
San Marcos,TX,Texas,Hays,29.8736,-97.9381,76218,732
San Ramon,CA,California,Contra Costa,37.7625,-121.9365,75995,1570
Lake Jackson,TX,Texas,Brazoria,29.0516,-95.4522,75860,532
Bethlehem,PA,Pennsylvania,Northampton,40.6266,-75.3679,75815,1531
Wyoming,MI,Michigan,Kent,42.8909,-85.7066,75667,1186
Oshkosh,WI,Wisconsin,Winnebago,44.0228,-88.5619,75536,958
Hammond,IN,Indiana,Lake,41.6169,-87.491,75522,1282
Waldorf,MD,Maryland,Charles,38.6085,-76.9195,75489,803
Missouri City,TX,Texas,Fort Bend,29.563,-95.5365,75457,1003
Pasco,WA,Washington,Franklin,46.2506,-119.1304,75432,858
Wheeling,WV,West Virginia,Ohio,40.0752,-80.6951,75392,740
Kendall,FL,Florida,Miami-Dade,25.6697,-80.3556,75312,1804
Baldwin Park,CA,California,Los Angeles,34.0829,-117.9721,75251,4381
Rancho Cordova,CA,California,Sacramento,38.574,-121.2523,75087,827
Conway,AR,Arkansas,Faulkner,35.0754,-92.4694,74951,567
Gary,IN,Indiana,Lake,41.5906,-87.3472,74879,581
Altoona,PA,Pennsylvania,Blair,40.5082,-78.4007,74829,1710
Lodi,CA,California,San Joaquin,38.1218,-121.2932,74773,1913
Arlington Heights,IL,Illinois,Cook,42.0955,-87.9825,74760,1738
Bolingbrook,IL,Illinois,Will,41.6903,-88.1019,74545,1169
Rochester Hills,MI,Michigan,Oakland,42.6645,-83.1563,74516,877
Winchester,VA,Virginia,Winchester,39.1735,-78.1746,74417,1179
Framingham,MA,Massachusetts,Middlesex,42.3085,-71.4368,74416,1147
Hilton Head Island,SC,South Carolina,Beaufort,32.1896,-80.7499,74139,372
Centreville,VA,Virginia,Fairfax,38.8391,-77.4388,74125,2396
Union City,CA,California,Alameda,37.603,-122.0187,74107,1474
Owensboro,KY,Kentucky,Daviess,37.7574,-87.1173,74068,1132
Jackson,TN,Tennessee,Madison,35.6535,-88.8353,74065,444
Cleveland,TN,Tennessee,Bradley,35.1817,-84.8707,73596,648
Wausau,WI,Wisconsin,Marathon,44.962,-89.6459,73593,774
Camden,NJ,New Jersey,Camden,39.9362,-75.1073,73562,3184
Anniston,AL,Alabama,Calhoun,33.6712,-85.8136,73501,179
Evanston,IL,Illinois,Cook,42.0463,-87.6942,73473,3646
Apple Valley,CA,California,San Bernardino,34.5328,-117.2104,73453,378
Mansfield,OH,Ohio,Richland,40.7656,-82.5275,73326,583
Caguas,PR,Puerto Rico,Caguas,18.2319,-66.0388,73322,2597
Schaumburg,IL,Illinois,Cook,42.0307,-88.0838,72887,1457
Pocatello,"ID",Idaho,Bannock,42.8724,-112.4646,72878,657
Woodbury,MN,Minnesota,Washington,44.9056,-92.923,72828,805
Southfield,MI,Michigan,Oakland,42.4765,-83.2605,72689,1068
Ellicott City,MD,Maryland,Howard,39.2773,-76.8344,72665,936
Dale City,VA,Virginia,Prince William,38.6473,-77.3459,72627,1969
Maple Grove,MN,Minnesota,Hennepin,45.1089,-93.4626,72622,860
Pittsburg,CA,California,Contra Costa,38.0182,-121.8964,72588,1588
New Britain,CT,Connecticut,Hartford,41.6758,-72.7862,72495,2095
Morgantown,WV,West Virginia,Monongalia,39.638,-79.9468,72458,1181
Mansfield,TX,Texas,Tarrant,32.569,-97.1211,72419,762
Hammond,LA,Louisiana,Tangipahoa,30.5061,-90.4563,72413,589
Dothan,AL,Alabama,Houston,31.2335,-85.4069,72396,296
Harrisonburg,VA,Virginia,Harrisonburg,38.4361,-78.8735,72386,1180
Wenatchee,WA,Washington,Chelan,47.4356,-120.3283,72350,1312
Waukesha,WI,Wisconsin,Waukesha,43.0087,-88.2464,72299,1093
Pawtucket,RI,Rhode Island,Providence,41.8744,-71.3743,72117,3212
Redmond,WA,Washington,King,47.6762,-122.1169,71929,1676
Lauderhill,FL,Florida,Broward,26.1605,-80.2242,71868,3256
Sumter,SC,South Carolina,Sumter,33.9392,-80.393,71518,469
Redlands,CA,California,San Bernardino,34.0511,-117.1712,71513,770
Daphne,AL,Alabama,Baldwin,30.6286,-87.8866,71484,603
Mount Vernon,WA,Washington,Skagit,48.4202,-122.3115,71422,1130
Weston,FL,Florida,Broward,26.1006,-80.4054,71166,1117
St. Charles,MO,Missouri,St. Charles,38.7954,-90.5157,71028,1104
Janesville,WI,Wisconsin,Rock,42.6855,-89.0136,70755,732
Sherman,TX,Texas,Grayson,33.6274,-96.6218,70704,372
North Richland Hills,TX,Texas,Tarrant,32.8605,-97.218,70670,1505
Broomfield,CO,Colorado,Broomfield,39.9541,-105.0527,70465,824
El Paso de Robles,CA,California,San Luis Obispo,35.6394,-120.656,70248,632
Bristol,TN,Tennessee,Sullivan,36.5572,-82.2154,70243,318
Wilmington,DE,Delaware,New Castle,39.7415,-75.5413,70166,2484
Casas Adobes,AZ,Arizona,Pima,32.3423,-111.0114,70166,1016
Walnut Creek,CA,California,Contra Costa,37.9024,-122.0398,70166,1371
Poinciana,FL,Florida,Polk,28.1217,-81.482,69955,375
Lynwood,CA,California,Los Angeles,33.924,-118.2017,69887,5575
Glen Burnie,MD,Maryland,Anne Arundel,39.1559,-76.6072,69872,1557
Lehi,UT,Utah,Utah,40.4136,-111.8726,69724,960
Passaic,NJ,New Jersey,Passaic,40.8574,-74.1282,69703,8590
Homestead,FL,Florida,Miami-Dade,25.4665,-80.4472,69523,1779
West Bend,WI,Wisconsin,Washington,43.4184,-88.1824,69504,804
Delray Beach,FL,Florida,Palm Beach,26.455,-80.0905,69451,1685
Sheboygan,WI,Wisconsin,Sheboygan,43.7403,-87.7316,69393,1184
Lake Elsinore,CA,California,Riverside,33.6847,-117.3344,69283,699
Daytona Beach,FL,Florida,Volusia,29.1994,-81.0982,69186,406
Los Lunas,NM,New Mexico,Valencia,34.8115,-106.7803,69020,331
Lima,OH,Ohio,Allen,40.741,-84.1121,68878,1045
Decatur,AL,Alabama,Morgan,34.573,-86.9906,68867,388
Rocklin,CA,California,Placer,38.8075,-121.2488,68823,1341
Rogers,AR,Arkansas,Benton,36.3172,-94.1526,68669,685
Castle Rock,CO,Colorado,Douglas,39.3763,-104.8535,68484,771
Hanover,PA,Pennsylvania,York,39.8117,-76.9835,68165,1641
Bossier City,LA,Louisiana,Bossier,32.5227,-93.6666,68159,605
Dubuque,IA,Iowa,Dubuque,42.5008,-90.7067,68109,729
Rockville,MD,Maryland,Montgomery,39.0834,-77.1552,68079,1933
Victoria,TX,Texas,Victoria,28.8285,-96.985,68078,694
Saratoga Springs,NY,New York,Saratoga,43.0674,-73.7775,68028,388
Guaynabo,PR,Puerto Rico,Guaynabo,18.3839,-66.1134,68024,2180
Gaithersburg,MD,Maryland,Montgomery,39.1346,-77.2132,67985,2543
Union City,NJ,New Jersey,Hudson,40.7674,-74.0323,67982,20394
Ames,IA,Iowa,Story,42.0259,-93.6215,67910,935
West Des Moines,IA,Iowa,Polk,41.5522,-93.7805,67899,556
South San Francisco,CA,California,San Mateo,37.6536,-122.4197,67789,2837
Yorba Linda,CA,California,Orange,33.889,-117.7714,67644,1316
Casper,WY,Wyoming,Natrona,42.842,-106.3207,67598,843
Palatine,IL,Illinois,Cook,42.1181,-88.043,67482,1916
Corvallis,OR,Oregon,Benton,44.5697,-123.278,67467,1592
Ankeny,IA,Iowa,Polk,41.7285,-93.6033,67355,862
Mount Vernon,NY,New York,Westchester,40.9136,-73.8291,67345,5930
Rowlett,TX,Texas,Dallas,32.9157,-96.5488,67339,1244
Lakeville,MN,Minnesota,Dakota,44.6774,-93.252,67317,715
Alpharetta,GA,Georgia,Fulton,34.0704,-84.2739,67213,964
Longview,WA,Washington,Cowlitz,46.1461,-122.9629,67081,1000
DeKalb,IL,Illinois,DeKalb,41.9313,-88.7482,66959,1025
Petaluma,CA,California,Sonoma,38.2423,-122.6267,66929,1620
Redondo Beach,CA,California,Los Angeles,33.8574,-118.3766,66749,4158
Tamarac,FL,Florida,Broward,26.2056,-80.2542,66721,2207
Laguna Niguel,CA,California,Orange,33.5275,-117.705,66385,1738
Eagan,MN,Minnesota,Dakota,44.8169,-93.1638,66372,821
Kenner,LA,Louisiana,Jefferson,30.0109,-90.2549,66340,1721
Bay City,MI,Michigan,Bay,43.5903,-83.8886,66107,1242
North Little Rock,AR,Arkansas,Pulaski,34.7808,-92.2371,65903,486
Sammamish,WA,Washington,King,47.6017,-122.0416,65892,1245
Shawnee,KS,Kansas,Johnson,39.0158,-94.8076,65807,605
Jupiter,FL,Florida,Palm Beach,26.9199,-80.1128,65791,1174
Doral,FL,Florida,Miami-Dade,25.8151,-80.3565,65741,1836
Florence-Graham,CA,California,Los Angeles,33.9682,-118.2447,65716,7230
Carbondale,IL,Illinois,Jackson,37.7221,-89.2238,65671,556
Blaine,MN,Minnesota,Anoka,45.1696,-93.2077,65607,769
Weirton,WV,West Virginia,Hancock,40.406,-80.5671,65578,390
Tulare,CA,California,Tulare,36.1996,-119.34,65496,1241
Wellington,FL,Florida,Palm Beach,26.6461,-80.2699,65398,561
Pflugerville,TX,Texas,Travis,30.452,-97.6022,65380,1013
Palo Alto,CA,California,Santa Clara,37.3913,-122.1468,65364,1058
Schenectady,NY,New York,Schenectady,42.8025,-73.9276,65273,2335
Great Falls,MT,Montana,Cascade,47.5022,-111.2995,65131,982
Michigan City,IN,Indiana,LaPorte,41.7099,-86.8705,65058,608
Bayonne,NJ,New Jersey,Hudson,40.6661,-74.1141,64897,4304
Eden Prairie,MN,Minnesota,Hennepin,44.8488,-93.4595,64893,770
Port Orange,FL,Florida,Volusia,29.1084,-81.0137,64842,933
Dublin,CA,California,Alameda,37.7161,-121.8963,64826,1643
Grand Forks,ND,North Dakota,Grand Forks,47.9218,-97.0886,64748,784
Noblesville,IN,Indiana,Hamilton,40.0354,-86.0042,64668,726
San Clemente,CA,California,Orange,33.4498,-117.6103,64558,1358
Brentwood,CA,California,Contra Costa,37.9355,-121.7191,64474,1675
Carmichael,CA,California,Sacramento,38.6337,-121.323,64454,1850
East Orange,NJ,New Jersey,Essex,40.7651,-74.2117,64367,6327
Eastvale,CA,California,Riverside,33.9617,-117.5802,64157,1954
Chapel Hill,NC,North Carolina,Orange,35.927,-79.0391,64051,1148
Rocky Mount,NC,North Carolina,Nash,35.9676,-77.8048,64018,471
Haverhill,MA,Massachusetts,Essex,42.7838,-71.0871,64014,748
Beloit,WI,Wisconsin,Rock,42.523,-89.0184,63762,822
Glens Falls,NY,New York,Warren,43.3109,-73.6459,63499,1430
Brentwood,NY,New York,Suffolk,40.7839,-73.2522,63399,2232
Fairbanks,AK,Alaska,Fairbanks North Star,64.8353,-147.6534,63245,375
Springfield,OR,Oregon,Lane,44.0538,-122.981,63230,1541
Bethesda,MD,Maryland,Montgomery,38.9866,-77.1188,63195,1839
Johnstown,PA,Pennsylvania,Cambria,40.3258,-78.9193,63141,1257
Dundalk,MD,Maryland,Baltimore,39.2703,-76.4942,63015,1861
Castro Valley,CA,California,Alameda,37.7091,-122.0631,63013,1466
Coon Rapids,MN,Minnesota,Anoka,45.1755,-93.3095,62998,1075
Elmira,NY,New York,Chemung,42.0938,-76.8097,62989,1440
Mankato,MN,Minnesota,Blue Earth,44.1712,-93.9773,62889,868
Albany,OR,Oregon,Linn,44.6274,-123.0966,62880,1218
North Miami,FL,Florida,Miami-Dade,25.9007,-80.1686,62822,2877
Encinitas,CA,California,San Diego,33.049,-117.2613,62709,1270
Skokie,IL,Illinois,Cook,42.0359,-87.74,62700,2405
Leander,TX,Texas,Williamson,30.5728,-97.8618,62608,644
Parkersburg,WV,West Virginia,Wood,39.2624,-81.542,62566,961
Waltham,MA,Massachusetts,Middlesex,42.3889,-71.2423,62495,1893
Port Charlotte,FL,Florida,Charlotte,26.9918,-82.114,62327,844
Palm Harbor,FL,Florida,Pinellas,28.0847,-82.7481,62310,1387
San Luis Obispo,CA,California,San Luis Obispo,35.2669,-120.6691,62290,1374
Sebring,FL,Florida,Highlands,27.477,-81.453,62250,404
Council Bluffs,IA,Iowa,Pottawattamie,41.2369,-95.8517,62166,559
Hamilton,OH,Ohio,Butler,39.3938,-84.5653,62082,1117
Moore,OK,Oklahoma,Cleveland,35.3293,-97.4758,62055,1094
Pico Rivera,CA,California,Los Angeles,33.9902,-118.0888,62027,2887
Casa Grande,AZ,Arizona,Pinal,32.9068,-111.7624,61966,204
Monessen,PA,Pennsylvania,Westmoreland,40.1519,-79.8828,61960,967
Montebello,CA,California,Los Angeles,34.0155,-118.1108,61954,2870
Rome,GA,Georgia,Floyd,34.2661,-85.1862,61537,449
The Hammocks,FL,Florida,Miami-Dade,25.67,-80.4483,61516,3010
Millcreek,UT,Utah,Salt Lake,40.6892,-111.8291,61450,1859
Sanford,FL,Florida,Seminole,28.7893,-81.276,61448,1015
National City,CA,California,San Diego,32.6654,-117.0983,61394,3250
Mayaguez,PR,Puerto Rico,Mayagüez,18.2003,-67.1397,61361,1129
Burnsville,MN,Minnesota,Dakota,44.7648,-93.2795,61339,953
Coconut Creek,FL,Florida,Broward,26.2803,-80.1842,61248,2117
Morristown,TN,Tennessee,Hamblen,36.2046,-83.3006,61171,426
Reston,VA,Virginia,Fairfax,38.9497,-77.3461,61147,1540
Lakewood,WA,Washington,Pierce,47.1628,-122.5299,61037,1381
Spring,TX,Texas,Harris,30.0613,-95.383,60976,1047
Gadsden,AL,Alabama,Etowah,34.009,-86.0156,60944,362
Taylor,MI,Michigan,Wayne,42.226,-83.2688,60922,996
Novi,MI,Michigan,Oakland,42.4786,-83.4893,60896,777
Marietta,GA,Georgia,Cobb,33.9533,-84.5422,60867,1004
Hot Springs,AR,Arkansas,Garland,34.4892,-93.0501,60767,400
Woodland,CA,California,Yolo,38.6712,-121.75,60598,1527
Fountainebleau,FL,Florida,Miami-Dade,25.7723,-80.3458,60547,5854
La Habra,CA,California,Orange,33.9278,-117.9513,60513,3177
Malden,MA,Massachusetts,Middlesex,42.4305,-71.0576,60470,4628
South Whittier,CA,California,Los Angeles,33.9336,-118.0311,60357,4366
Commerce City,CO,Colorado,Adams,39.8642,-104.8434,60336,652
South Hill,WA,Washington,Pierce,47.1203,-122.2848,60172,1265
Bristol,CT,Connecticut,Hartford,41.6812,-72.9407,59947,876
Columbus,IN,Indiana,Bartholomew,39.2093,-85.9183,59897,660
West Allis,WI,Wisconsin,Milwaukee,43.0068,-88.0296,59890,2031
Taylorsville,UT,Utah,Salt Lake,40.657,-111.9493,59805,2128
Bangor,ME,Maine,Penobscot,44.8322,-68.7906,59772,363
Monterey Park,CA,California,Los Angeles,34.0497,-118.1326,59669,3002
Greenwood,IN,Indiana,Johnson,39.6019,-86.1073,59458,822
Bartlett,TN,Tennessee,Shelby,35.2337,-89.8195,59440,710
Bradenton,FL,Florida,Manatee,27.49,-82.5739,59439,1596
Pontiac,MI,Michigan,Oakland,42.6493,-83.2878,59438,1154
Staunton,VA,Virginia,Staunton,38.1593,-79.0611,59433,483
Meriden,CT,Connecticut,New Haven,41.5367,-72.7944,59395,963
Gardena,CA,California,Los Angeles,33.8944,-118.3073,59329,3929
Apex,NC,North Carolina,Wake,35.7239,-78.8728,59300,1100
Royal Oak,MI,Michigan,Oakland,42.5084,-83.1539,59277,1940
Cupertino,CA,California,Santa Clara,37.3168,-122.0465,59276,2023
La Mesa,CA,California,San Diego,32.7703,-117.0204,59249,2515
Benton Harbor,MI,Michigan,Berrien,42.1159,-86.4488,59216,858
St. Clair Shores,MI,Michigan,Macomb,42.4921,-82.8957,58984,1949
Des Plaines,IL,Illinois,Cook,42.0345,-87.9009,58899,1598
Lewiston,ME,Maine,Androscoggin,44.0915,-70.1681,58802,409
Margate,FL,Florida,Broward,26.2466,-80.2119,58796,2591
Midland,MI,Michigan,Midland,43.6241,-84.2319,58787,468
Carson City,NV,Nevada,Carson City,39.1512,-119.7474,58756,149
Bowie,MD,Maryland,Prince George's,38.9569,-76.7409,58643,1144
Middletown,NY,New York,Orange,41.4459,-74.4236,58592,2048
Caldwell,"ID",Idaho,Canyon,43.6453,-116.6591,58481,998
San Rafael,CA,California,Marin,37.9905,-122.5222,58440,1361
Richland,WA,Washington,Benton,46.2824,-119.2938,58225,573
St. Peters,MO,Missouri,St. Charles,38.7824,-90.6061,58212,1003
Wesley Chapel,FL,Florida,Pasco,28.2106,-82.3238,58208,511
Hendersonville,TN,Tennessee,Sumner,36.3063,-86.5998,58113,714
White Plains,NY,New York,Westchester,41.022,-73.7549,58109,2291
Huntersville,NC,North Carolina,Mecklenburg,35.4058,-80.8727,58098,550
Santee,CA,California,San Diego,32.8554,-116.9851,58081,1355
Jefferson City,MO,Missouri,Cole,38.5676,-92.1759,58025,457
Beckley,WV,West Virginia,Raleigh,37.7878,-81.1841,57942,647
Arcadia,CA,California,Los Angeles,34.1342,-118.0373,57939,2047
Titusville,FL,Florida,Brevard,28.5727,-80.8193,57891,615
Cartersville,GA,Georgia,Bartow,34.1639,-84.8007,57873,289
Walla Walla,WA,Washington,Walla Walla,46.067,-118.3366,57860,926
Orland Park,IL,Illinois,Cook,41.6074,-87.8619,57857,1014
Towson,MD,Maryland,Baltimore,39.3944,-76.619,57817,1577
Weymouth,MA,Massachusetts,Norfolk,42.1984,-70.9466,57746,1329
Parker,CO,Colorado,Douglas,39.5084,-104.7753,57706,1003
Palm Beach Gardens,FL,Florida,Palm Beach,26.8466,-80.1679,57704,379
Bozeman,MT,Montana,Gallatin,45.6832,-111.0552,57695,945
East Stroudsburg,PA,Pennsylvania,Monroe,41.0023,-75.1779,57577,1416
Huntington Park,CA,California,Los Angeles,33.98,-118.2167,57509,7370
Taunton,MA,Massachusetts,Bristol,41.9036,-71.0943,57464,475
Midwest City,OK,Oklahoma,Oklahoma,35.463,-97.3709,57407,907
Medford,MA,Massachusetts,Middlesex,42.4234,-71.1087,57341,2733
Goldsboro,NC,North Carolina,Wayne,35.3778,-77.972,57278,462
Euless,TX,Texas,Tarrant,32.8508,-97.0799,57197,1368
Manhattan,KS,Kansas,Riley,39.1886,-96.6046,57046,1062
Shoreline,WA,Washington,King,47.7564,-122.3426,57027,1892
Lake Havasu City,AZ,Arizona,Mohave,34.5006,-114.3113,56820,465
Smyrna,GA,Georgia,Cobb,33.8633,-84.5168,56666,1406
Cape Girardeau,MO,Missouri,Cape Girardeau,37.3108,-89.5597,56551,538
Tamiami,FL,Florida,Miami-Dade,25.7556,-80.4016,56225,3080
Kendale Lakes,FL,Florida,Miami-Dade,25.7081,-80.4078,56182,2686
Grants Pass,OR,Oregon,Josephine,42.4333,-123.3317,55837,1279
Blue Springs,MO,Missouri,Jackson,39.0124,-94.2721,55829,961
Southaven,MS,Mississippi,DeSoto,34.9514,-89.9787,55780,521
Tinley Park,IL,Illinois,Cook,41.567,-87.805,55773,1336
Diamond Bar,CA,California,Los Angeles,33.9991,-117.8161,55720,1446
Pittsfield,MA,Massachusetts,Berkshire,42.4517,-73.2605,55697,402
Eagle Pass,TX,Texas,Maverick,28.7125,-100.484,55686,1216
New Brunswick,NJ,New Jersey,Middlesex,40.487,-74.445,55676,4108
Lenexa,KS,Kansas,Johnson,38.9609,-94.8018,55625,630
Hazleton,PA,Pennsylvania,Luzerne,40.9504,-75.9724,55604,1592
Twin Falls,"ID",Idaho,Twin Falls,42.5645,-114.4615,55556,1008
Brookhaven,GA,Georgia,DeKalb,33.8744,-84.3314,55554,1847
Novato,CA,California,Marin,38.092,-122.5576,55516,780
Tigard,OR,Oregon,Washington,45.4237,-122.7845,55514,1680
Highland,CA,California,San Bernardino,34.1113,-117.1654,55417,1141
Fountain Valley,CA,California,Orange,33.7105,-117.9514,55357,2356
Dearborn Heights,MI,Michigan,Wayne,42.3164,-83.2769,55353,1820
Grapevine,TX,Texas,Tarrant,32.9343,-97.0744,55281,667
Fond du Lac,WI,Wisconsin,Fond du Lac,43.7718,-88.4396,55209,869
Hacienda Heights,CA,California,Los Angeles,33.997,-117.9728,55188,1906
Ithaca,NY,New York,Tompkins,42.4442,-76.5032,55137,2209
Apple Valley,MN,Minnesota,Dakota,44.7457,-93.2006,55135,1254
Chicopee,MA,Massachusetts,Hampden,42.1764,-72.5719,55126,929
Oak Lawn,IL,Illinois,Cook,41.7139,-87.7528,55022,2478
Cathedral City,CA,California,Riverside,33.8363,-116.4642,55007,944
Delano,CA,California,Kern,35.767,-119.2637,54917,1448
Bentonville,AR,Arkansas,Benton,36.3546,-94.2306,54909,627
Stonecrest,GA,Georgia,DeKalb,33.6842,-84.1372,54903,566
Kettering,OH,Ohio,Montgomery,39.6957,-84.1495,54855,1133
Colton,CA,California,San Bernardino,34.0538,-117.3254,54824,1362
Kingston,NY,New York,Ulster,41.9295,-73.9968,54791,1176
West Haven,CT,Connecticut,New Haven,41.2739,-72.9672,54620,1961
St. Cloud,FL,Florida,Osceola,28.2294,-81.2829,54579,1038
Normal,IL,Illinois,McLean,40.5218,-88.9881,54469,1149
Berwyn,IL,Illinois,Cook,41.8433,-87.7909,54391,5378
Milford,CT,Connecticut,New Haven,41.2256,-73.0616,54328,945
Aloha,OR,Oregon,Washington,45.492,-122.8726,54287,2851
Arroyo Grande,CA,California,San Luis Obispo,35.1241,-120.5845,54177,1168
Minnetonka,MN,Minnesota,Hennepin,44.9322,-93.4598,54064,775
Rosemead,CA,California,Los Angeles,34.0689,-118.0823,54058,4043
Paramount,CA,California,Los Angeles,33.8976,-118.1652,53955,4405
Yucaipa,CA,California,San Bernardino,34.0336,-117.0429,53921,735
Brunswick,GA,Georgia,Glynn,31.145,-81.474,53914,367
Williamsport,PA,Pennsylvania,Lycoming,41.2398,-77.0371,53861,1246
Elyria,OH,Ohio,Lorain,41.3761,-82.1063,53757,1009
Leesburg,VA,Virginia,Loudoun,39.1058,-77.5544,53727,1673
Mount Prospect,IL,Illinois,Cook,42.0641,-87.9375,53719,1934
Pinellas Park,FL,Florida,Pinellas,27.8589,-82.7078,53637,1289
Bellevue,NE,Nebraska,Sarpy,41.1535,-95.9357,53544,1247
West Sacramento,CA,California,Yolo,38.5557,-121.5504,53519,962
Apopka,FL,Florida,Orange,28.7014,-81.5304,53447,613
Lewiston,"ID",Idaho,Nez Perce,46.3934,-116.9934,53384,731
Grand Island,NE,Nebraska,Hall,40.9214,-98.3584,53296,665
Palm Desert,CA,California,Riverside,33.7378,-116.3695,53275,767
Milford city ,CT,Connecticut,New Haven,41.2256,-73.0625,53195,937
Watertown,NY,New York,Jefferson,43.9734,-75.9094,53163,1061
Little Elm,TX,Texas,Denton,33.1856,-96.929,53126,1151
Chambersburg,PA,Pennsylvania,Franklin,39.9315,-77.6556,53083,1178
Revere,MA,Massachusetts,Suffolk,42.4192,-71.0036,53073,3592
Peabody,MA,Massachusetts,Essex,42.5335,-70.9724,53070,1262
Wylie,TX,Texas,Collin,33.0362,-96.5161,53067,928
Beaufort,SC,South Carolina,Beaufort,32.4597,-80.7235,53051,212
Aspen Hill,MD,Maryland,Montgomery,39.0928,-77.0823,53049,2134
DeSoto,TX,Texas,Dallas,32.5992,-96.8633,52988,945
Helena,MT,Montana,Lewis and Clark,46.5965,-112.0202,52936,760
Edina,MN,Minnesota,Hennepin,44.8914,-93.3602,52857,1320
Wheaton,IL,Illinois,DuPage,41.8561,-88.1083,52745,1801
West New York,NJ,New Jersey,Hudson,40.7856,-74.0093,52723,20473
Hoboken,NJ,New Jersey,Hudson,40.7453,-74.0279,52677,16268
Lacey,WA,Washington,Thurston,47.046,-122.7934,52592,1187
Summerville,SC,South Carolina,Dorchester,33.0015,-80.1799,52549,1030
Oak Park,IL,Illinois,Cook,41.8872,-87.7899,52381,4303
Maricopa,AZ,Arizona,Pinal,33.0404,-112.0006,52127,470
Lompoc,CA,California,Santa Barbara,34.6618,-120.4714,52020,1423
Kentwood,MI,Michigan,Kent,42.8852,-85.5925,51898,958
Levittown,PA,Pennsylvania,Bucks,40.1537,-74.853,51818,1969
Sierra Vista,AZ,Arizona,Cochise,31.563,-110.3153,51731,109
Levittown,NY,New York,Nassau,40.7241,-73.5125,51634,2926
Madison,AL,Alabama,Madison,34.7114,-86.7626,51593,657
Smyrna,TN,Tennessee,Rutherford,35.9722,-86.5253,51586,657
Glendora,CA,California,Los Angeles,34.1449,-117.8468,51544,1020
Burien,WA,Washington,King,47.4762,-122.3394,51500,1980
Perth Amboy,NJ,New Jersey,Middlesex,40.5203,-74.2724,51390,4255
Herriman,UT,Utah,Salt Lake,40.4899,-112.0171,51348,916
Farmington,NM,New Mexico,San Juan,36.7555,-108.1823,51309,497
New Bern,NC,North Carolina,Craven,35.0955,-77.0723,51308,409
Placentia,CA,California,Orange,33.8807,-117.8553,51233,2990
Hinesville,GA,Georgia,Liberty,31.8247,-81.6135,51206,707
Beaumont,CA,California,Riverside,33.9076,-116.9766,51063,650
Collierville,TN,Tennessee,Shelby,35.0471,-89.6988,51040,544
West Lafayette,IN,Indiana,Tippecanoe,40.4432,-86.9239,50996,1449
Florissant,MO,Missouri,St. Louis,38.7996,-90.3269,50952,1567
Hoffman Estates,IL,Illinois,Cook,42.0639,-88.1468,50932,933
Queen Creek,AZ,Arizona,Maricopa,33.2386,-111.6343,50890,606
Aliso Viejo,CA,California,Orange,33.5792,-117.7289,50887,2839
Kannapolis,NC,North Carolina,Cabarrus,35.4764,-80.6403,50841,602
Methuen Town,MA,Massachusetts,Essex,42.734,-71.1889,50706,881
Sahuarita,AZ,Arizona,Pima,31.9323,-110.9654,50616,382
Traverse City,MI,Michigan,Grand Traverse,44.7547,-85.6035,50522,729
Severn,MD,Maryland,Anne Arundel,39.1355,-76.6958,50496,1064
Catalina Foothills,AZ,Arizona,Pima,32.3041,-110.8835,50454,465
Galveston,TX,Texas,Galveston,29.2487,-94.891,50446,473
Country Club,FL,Florida,Miami-Dade,25.9407,-80.3102,50431,4664
Cookeville,TN,Tennessee,Putnam,36.1484,-85.5114,50408,378
Mishawaka,IN,Indiana,St. Joseph,41.6736,-86.1669,50363,1101
Rowland Heights,CA,California,Los Angeles,33.9716,-117.8911,50347,1486
Plainfield,NJ,New Jersey,Union,40.6154,-74.4157,50317,3260
Bullhead City,AZ,Arizona,Mohave,35.1205,-114.546,50309,265
Stillwater,OK,Oklahoma,Payne,36.1316,-97.074,50299,657
Forney,TX,Texas,Kaufman,32.744,-96.4529,50251,710
Wheaton,MD,Maryland,Montgomery,39.0492,-77.0572,50229,2811
Azusa,CA,California,Los Angeles,34.1386,-117.9124,49974,1996
North Bethesda,MD,Maryland,Montgomery,39.0393,-77.1191,49872,2171
Cerritos,CA,California,Los Angeles,33.8677,-118.0686,49859,2207
Ashburn,VA,Virginia,Loudoun,39.03,-77.4711,49848,1120
Bloomsburg,PA,Pennsylvania,Columbia,41.0027,-76.4561,49840,1226
Morehead City,NC,North Carolina,Carteret,34.7308,-76.7387,49760,504
Coral Gables,FL,Florida,Miami-Dade,25.7037,-80.2715,49700,1484
Enid,OK,Oklahoma,Garfield,36.4061,-97.8701,49688,259
Lakewood,OH,Ohio,Cuyahoga,41.4824,-81.8008,49678,3460
Oroville,CA,California,Butte,39.4999,-121.5634,49513,578
Wilson,NC,North Carolina,Wilson,35.7312,-77.9284,49483,613
Lawrence,IN,Indiana,Marion,39.8674,-85.9905,49462,945
Portage,MI,Michigan,Kalamazoo,42.2,-85.5906,49445,591
Minot,ND,North Dakota,Ward,48.2375,-101.2781,49425,671
Dunwoody,GA,Georgia,DeKalb,33.9418,-84.3122,49356,1462
Poway,CA,California,San Diego,32.9871,-117.0201,49323,487
San Jacinto,CA,California,Riverside,33.797,-116.9916,49215,738
Troy,NY,New York,Rensselaer,42.7354,-73.6751,49154,1832
Newark,CA,California,Alameda,37.5204,-122.0312,49149,1367
Cuyahoga Falls,OH,Ohio,Summit,41.1641,-81.5207,49106,734
Downers Grove,IL,Illinois,DuPage,41.7949,-88.017,49057,1304
Bedford,TX,Texas,Tarrant,32.8464,-97.135,49049,1890
Reedley,CA,California,Fresno,36.5987,-119.4473,49042,1818
Dublin,OH,Ohio,Franklin,40.1112,-83.1454,49037,767
Marana,AZ,Arizona,Pima,32.4355,-111.1558,49030,156
Cypress,CA,California,Orange,33.8171,-118.0386,49006,2861
Hollister,CA,California,San Benito,36.8563,-121.3981,48992,2140
Murray,UT,Utah,Salt Lake,40.6498,-111.8874,48917,1532
Roswell,NM,New Mexico,Chaves,33.373,-104.5294,48889,617
Pascagoula,MS,Mississippi,Jackson,30.3665,-88.5507,48869,544
Tuckahoe,VA,Virginia,Henrico,37.5878,-77.5858,48799,921
Ceres,CA,California,Stanislaus,37.5953,-120.9625,48706,2009
St. Louis Park,MN,Minnesota,Hennepin,44.9488,-93.3649,48662,1767
Rio Grande City,TX,Texas,Starr,26.3808,-98.8215,48610,493
Draper,UT,Utah,Salt Lake,40.4957,-111.8605,48587,626
Palm Springs,CA,California,Riverside,33.8017,-116.5382,48518,198
Paducah,KY,Kentucky,McCracken,37.0711,-88.6436,48481,475
Findlay,OH,Ohio,Hancock,41.0467,-83.6379,48469,810
University,FL,Florida,Hillsborough,28.0771,-82.4335,48436,2954
Bel Air South,MD,Maryland,Harford,39.5051,-76.3197,48425,1193
Antelope,CA,California,Sacramento,38.7153,-121.361,48398,2733
Kyle,TX,Texas,Hays,29.9937,-97.8859,48393,613
Monroe,MI,Michigan,Monroe,41.9154,-83.385,48317,834
Lincoln,CA,California,Placer,38.8759,-121.2916,48275,792
Ocoee,FL,Florida,Orange,28.5787,-81.5338,48263,1217
Burleson,TX,Texas,Johnson,32.517,-97.3343,48225,658
La Mirada,CA,California,Los Angeles,33.9025,-118.0093,48183,2378
Farmers Branch,TX,Texas,Dallas,32.9272,-96.8804,48158,1565
East Lansing,MI,Michigan,Ingham,42.748,-84.4835,48145,1384
Uniontown,PA,Pennsylvania,Fayette,39.8994,-79.7244,48137,1838
Jeffersonville,IN,Indiana,Clark,38.3376,-85.7026,48126,544
Winder,GA,Georgia,Barrow,33.9917,-83.7218,48125,507
Wauwatosa,WI,Wisconsin,Milwaukee,43.0615,-88.0347,48118,1404
Littleton,CO,Colorado,Arapahoe,39.5915,-105.0188,48065,1469
Cumberland,MD,Maryland,Allegany,39.6515,-78.7585,47980,740
Cedar Hill,TX,Texas,Dallas,32.581,-96.9591,47930,517
Carrollton,GA,Georgia,Carroll,33.5817,-85.0837,47920,471
Rancho Santa Margarita,CA,California,Orange,33.6318,-117.5989,47896,1434
Beavercreek,OH,Ohio,Greene,39.731,-84.0624,47741,693
Niagara Falls,NY,New York,Niagara,43.0921,-79.0147,47720,1308
McLean,VA,Virginia,Fairfax,38.9436,-77.1943,47682,742
North Highlands,CA,California,Sacramento,38.6713,-121.3721,47661,2088
East Providence,RI,Rhode Island,Providence,41.8065,-71.3565,47618,1383
Florin,CA,California,Sacramento,38.4832,-121.4042,47555,2109
East Honolulu,HI,Hawaii,Honolulu,21.2975,-157.7211,47540,797
Chesterfield,MO,Missouri,St. Louis,38.6588,-90.5804,47538,575
Covina,CA,California,Los Angeles,34.0903,-117.8817,47450,2606
Bothell,WA,Washington,King,47.7735,-122.2044,47415,1342
Glenview,IL,Illinois,Cook,42.0825,-87.8216,47308,1302
Mentor,OH,Ohio,Lake,41.6895,-81.3361,47262,656
Keller,TX,Texas,Tarrant,32.9337,-97.2255,47213,987
Danville,IL,Illinois,Vermilion,40.1423,-87.6114,47059,654
Spring Hill,TN,Tennessee,Maury,35.7438,-86.9116,47042,630
Roseville,MI,Michigan,Macomb,42.5074,-82.9369,47018,1845
Elmhurst,IL,Illinois,DuPage,41.8973,-87.9432,46746,1759
New Philadelphia,OH,Ohio,Tuscarawas,40.486,-81.4402,46698,818
Sandusky,OH,Ohio,Erie,41.4437,-82.7149,46655,981
El Dorado Hills,CA,California,El Dorado,38.675,-121.049,46593,371
Salina,KS,Kansas,Saline,38.8137,-97.6143,46550,698
Euclid,OH,Ohio,Cuyahoga,41.5904,-81.5188,46550,1687
Kingman,AZ,Arizona,Mohave,35.217,-114.0105,46524,318
Everett,MA,Massachusetts,Middlesex,42.4064,-71.0545,46451,5244
Farmington,MO,Missouri,St. Francois,37.7821,-90.4288,46331,808
Weatherford,TX,Texas,Parker,32.7536,-97.7723,46268,477
Middletown,CT,Connecticut,Middlesex,41.5476,-72.6549,46258,435
Roseburg,OR,Oregon,Douglas,43.2232,-123.3518,46228,843
Biloxi,MS,Mississippi,Harrison,30.4422,-88.9512,46212,415
Leavenworth,KS,Kansas,Leavenworth,39.3239,-94.924,46192,572
Fort Pierce,FL,Florida,St. Lucie,27.4256,-80.3431,46103,751
Winter Garden,FL,Florida,Orange,28.5421,-81.5966,46051,1094
Oro Valley,AZ,Arizona,Pima,32.4208,-110.9768,46044,509
Morgan Hill,CA,California,Santa Clara,37.1326,-121.6417,45952,1365
Potomac,MD,Maryland,Montgomery,39.0141,-77.1943,45940,705
Pinehurst,NC,North Carolina,Moore,35.1922,-79.4684,45935,384
Danville,VA,Virginia,Danville,36.5831,-79.4087,45890,361
Rockwall,TX,Texas,Rockwall,32.9169,-96.4377,45888,603
Coachella,CA,California,Riverside,33.6905,-116.143,45743,587
Wake Forest,NC,North Carolina,Wake,35.9629,-78.5141,45629,999
Pearl City,HI,Hawaii,Honolulu,21.4031,-157.9566,45605,1933
Tupelo,MS,Mississippi,Lee,34.2692,-88.7318,45466,229
Attleboro,MA,Massachusetts,Bristol,41.9311,-71.295,45237,652
Pine Bluff,AR,Arkansas,Jefferson,34.2116,-92.0178,45204,365
Oakland Park,FL,Florida,Broward,26.178,-80.1528,45202,2318
Marion,OH,Ohio,Marion,40.5933,-83.1237,45181,1175
Hilo,HI,Hawaii,Hawaii,19.6886,-155.0864,45056,325
Lufkin,TX,Texas,Angelina,31.3217,-94.7277,44867,395
Altadena,CA,California,Los Angeles,34.1928,-118.1345,44850,2045
Manitowoc,WI,Wisconsin,Manitowoc,44.0991,-87.6811,44770,707
Lake Ridge,VA,Virginia,Prince William,38.6843,-77.3059,44716,1849
Selma,CA,California,Fresno,36.5715,-119.6143,44703,1661
Strongsville,OH,Ohio,Cuyahoga,41.3128,-81.8313,44660,700
Danville,CA,California,Contra Costa,37.8121,-121.9698,44510,950
Quincy,IL,Illinois,Adams,39.9335,-91.3799,44466,981
Lancaster,OH,Ohio,Fairfield,39.7249,-82.6049,44447,829
Riverton,UT,Utah,Salt Lake,40.5177,-111.9635,44440,1363
The Colony,TX,Texas,Denton,33.0925,-96.8977,44438,1225
Urbandale,IA,Iowa,Polk,41.639,-93.7813,44379,762
Plainfield,IL,Illinois,Will,41.6206,-88.2252,44308,705
Lombard,IL,Illinois,DuPage,41.8742,-88.0157,44303,1675
Prescott,AZ,Arizona,Yavapai,34.585,-112.4475,44299,380
North Lauderdale,FL,Florida,Broward,26.2113,-80.2209,44262,3697
Eureka,CA,California,Humboldt,40.7942,-124.1568,44236,1098
Hackensack,NJ,New Jersey,Bergen,40.889,-74.0461,44188,4070
Sayreville,NJ,New Jersey,Middlesex,40.4656,-74.3237,44173,1077
Altamonte Springs,FL,Florida,Seminole,28.6615,-81.3953,44143,1876
Del Rio,TX,Texas,Val Verde,29.3708,-100.88,44121,676
Cleveland Heights,OH,Ohio,Cuyahoga,41.5112,-81.5636,43992,2097
Bountiful,UT,Utah,Davis,40.8722,-111.8647,43981,1286
Desert Hot Springs,CA,California,Riverside,33.9551,-116.543,43914,368
Peachtree Corners,GA,Georgia,Gwinnett,33.967,-84.2319,43905,1052
Haltom City,TX,Texas,Tarrant,32.8176,-97.2707,43874,1369
Ormond Beach,FL,Florida,Volusia,29.296,-81.1003,43759,510
Cutler Bay,FL,Florida,Miami-Dade,25.5765,-80.3356,43718,1707
Trujillo Alto,PR,Puerto Rico,Trujillo Alto,18.3601,-66.0103,43703,2329
Adrian,MI,Michigan,Lenawee,41.8994,-84.0446,43689,994
Goose Creek,SC,South Carolina,Berkeley,32.9925,-80.0054,43665,409
Moorhead,MN,Minnesota,Clay,46.8673,-96.7461,43652,756
Westfield,IN,Indiana,Hamilton,40.0333,-86.1532,43649,554
Concord,NH,New Hampshire,Merrimack,43.2305,-71.5595,43627,263
Annandale,VA,Virginia,Fairfax,38.8324,-77.196,43295,2129
Rohnert Park,CA,California,Sonoma,38.348,-122.6964,43291,2386
Brea,CA,California,Orange,33.9254,-117.8656,43255,1373
Klamath Falls,OR,Oregon,Klamath,42.2191,-121.7754,43246,419
Salem,MA,Massachusetts,Essex,42.5129,-70.902,43226,2012
Channelview,TX,Texas,Harris,29.7914,-95.1145,43055,1148
North Miami Beach,FL,Florida,Miami-Dade,25.9302,-80.166,43041,3429
Whitney,NV,Nevada,Clark,36.1005,-115.038,42973,2471
Freeport,NY,New York,Nassau,40.6515,-73.585,42956,3622
Centralia,WA,Washington,Lewis,46.7226,-122.9696,42922,904
Gallatin,TN,Tennessee,Sumner,36.3782,-86.4696,42918,520
Stevens Point,WI,Wisconsin,Portage,44.5241,-89.5508,42837,581
San Bruno,CA,California,San Mateo,37.6254,-122.4313,42807,3019
Burke,VA,Virginia,Fairfax,38.7773,-77.2633,42806,1920
Brentwood,TN,Tennessee,Williamson,35.9918,-86.7758,42783,401
North Fort Myers,FL,Florida,Lee,26.7243,-81.8491,42770,326
Hicksville,NY,New York,Nassau,40.7637,-73.5245,42709,2427
West Babylon,NY,New York,Suffolk,40.7112,-73.3567,42665,2117
Edmonds,WA,Washington,Snohomish,47.8115,-122.3533,42605,1844
Apache Junction,AZ,Arizona,Pinal,33.3985,-111.5351,42571,468
Fairfield,OH,Ohio,Butler,39.3301,-84.5409,42558,788
Oakley,CA,California,Contra Costa,37.9929,-121.6951,42543,1035
Hutchinson,KS,Kansas,Reno,38.0671,-97.9081,42531,634
Greenwood,SC,South Carolina,Greenwood,34.1945,-82.1542,42429,553
Richmond,IN,Indiana,Wayne,39.8318,-84.8905,42373,568
Linden,NJ,New Jersey,Union,40.6251,-74.2381,42361,1530
Puyallup,WA,Washington,Pierce,47.1794,-122.2902,42361,1157
Huntsville,TX,Texas,Walker,30.705,-95.5544,42241,454
Urbana,IL,Illinois,Champaign,40.1106,-88.1972,42214,1379
Beverly,MA,Massachusetts,Essex,42.5681,-70.8627,42174,1079
Clovis,NM,New Mexico,Curry,34.4376,-103.1923,42168,626
Statesboro,GA,Georgia,Bulloch,32.4376,-81.775,42102,854
Hobbs,NM,New Mexico,Lea,32.7282,-103.16,42095,572
McMinnville,OR,Oregon,Yamhill,45.211,-123.1918,42062,1268
Schertz,TX,Texas,Guadalupe,29.5649,-98.2537,42042,507
Bell Gardens,CA,California,Los Angeles,33.9663,-118.155,42012,6597
Oviedo,FL,Florida,Seminole,28.658,-81.1872,41860,1043
Odenton,MD,Maryland,Anne Arundel,39.0661,-76.6939,41846,1093
Grove City,OH,Ohio,Franklin,39.8659,-83.0694,41820,940
Campbell,CA,California,Santa Clara,37.2802,-121.9538,41793,2656
Wentzville,MO,Missouri,St. Charles,38.8152,-90.8667,41784,809
Woonsocket,RI,Rhode Island,Providence,42.001,-71.4993,41751,2081
La Quinta,CA,California,Riverside,33.6536,-116.2785,41748,457
Weslaco,TX,Texas,Hidalgo,26.1648,-97.9898,41629,913
Zanesville,OH,Ohio,Muskingum,39.9565,-82.0132,41589,825
Newnan,GA,Georgia,Coweta,33.3766,-84.7761,41581,831
Shakopee,MN,Minnesota,Scott,44.7744,-93.4764,41570,570
Brighton,CO,Colorado,Adams,39.9716,-104.7964,41554,757
Catonsville,MD,Maryland,Baltimore,39.2646,-76.7424,41547,1148
Rancho Palos Verdes,CA,California,Los Angeles,33.7554,-118.3637,41530,1190
Mableton,GA,Georgia,Cobb,33.8132,-84.5656,41487,778
Coppell,TX,Texas,Dallas,32.9638,-96.9905,41421,1102
Linton Hall,VA,Virginia,Prince William,38.7551,-77.575,41386,1255
Moline,IL,Illinois,Rock Island,41.4821,-90.4921,41356,953
Delaware,OH,Ohio,Delaware,40.2866,-83.0747,41283,825
Westfield,MA,Massachusetts,Hampden,42.1382,-72.7561,41204,343
Shelton,CT,Connecticut,Fairfield,41.306,-73.1383,41129,518
Greenacres,FL,Florida,Palm Beach,26.6272,-80.1371,41117,2714
Westerville,OH,Ohio,Franklin,40.1241,-82.9209,41103,1259
Manassas,VA,Virginia,Manassas,38.7479,-77.4839,41085,1610
Kearny,NJ,New Jersey,Hudson,40.7528,-74.1202,41058,1792
Los Banos,CA,California,Merced,37.063,-120.8406,41036,1585
Richmond,KY,Kentucky,Madison,37.7306,-84.2926,40972,686
Spanish Fork,UT,Utah,Utah,40.1101,-111.6406,40913,974
Belleville,IL,Illinois,St. Clair,38.5165,-89.99,40897,680
Maplewood,MN,Minnesota,Ramsey,44.9842,-93.0247,40885,926
Wilkes-Barre,PA,Pennsylvania,Luzerne,41.2468,-75.8759,40766,2254
Pottsville,PA,Pennsylvania,Schuylkill,40.6798,-76.2092,40685,1248
Columbia,TN,Tennessee,Maury,35.6235,-87.0486,40663,472
Bartlett,IL,Illinois,Cook,41.9803,-88.2069,40647,996
Bluefield,WV,West Virginia,Mercer,37.2608,-81.2143,40640,411
Fitchburg,MA,Massachusetts,Worcester,42.5912,-71.8156,40638,563
Marion,IN,Indiana,Grant,40.5496,-85.66,40588,691
Cedar Falls,IA,Iowa,Black Hawk,42.5195,-92.4534,40536,540
Buffalo Grove,IL,Illinois,Cook,42.1673,-87.9616,40494,1648
Jamestown,NY,New York,Chautauqua,42.0975,-79.2366,40493,1255
Woodlawn,MD,Maryland,Baltimore,39.3054,-76.7489,40469,1638
Clarksburg,WV,West Virginia,Harrison,39.2863,-80.323,40403,604
Royal Palm Beach,FL,Florida,Palm Beach,26.7038,-80.2241,40396,1374
Marion,IA,Iowa,Linn,42.045,-91.5846,40359,879
Covington,KY,Kentucky,Kenton,39.0334,-84.5166,40341,1180
Coram,NY,New York,Suffolk,40.8813,-73.0059,40311,1125
Friendswood,TX,Texas,Galveston,29.5111,-95.1979,40290,754
Indian Trail,NC,North Carolina,Union,35.0698,-80.6457,40252,707
Woburn,MA,Massachusetts,Middlesex,42.4869,-71.1543,40228,1227
The Acreage,FL,Florida,Palm Beach,26.7741,-80.2779,40177,452
Holyoke,MA,Massachusetts,Hampden,42.2125,-72.6411,40117,731
Montclair,CA,California,San Bernardino,34.0714,-117.698,40083,2806
South Valley,NM,New Mexico,Bernalillo,35.0092,-106.6819,40080,533
Torrington,CT,Connecticut,Litchfield,41.8349,-73.1281,40003,330
Cedar City,UT,Utah,Iron,37.6834,-113.0956,39995,374
San Gabriel,CA,California,Los Angeles,34.0948,-118.099,39899,3716
Hallandale Beach,FL,Florida,Broward,25.9854,-80.1423,39847,3651
Crystal Lake,IL,Illinois,McHenry,42.2333,-88.3351,39829,814
Calexico,CA,California,Imperial,32.6849,-115.4944,39825,1783
Lake Oswego,OR,Oregon,Clackamas,45.413,-122.7003,39822,1426
Amherst,MA,Massachusetts,Hampshire,42.3645,-72.5069,39814,556
Muskogee,OK,Oklahoma,Muskogee,35.7431,-95.3568,39789,331
Romeoville,IL,Illinois,Will,41.6318,-88.0996,39746,804
Plant City,FL,Florida,Hillsborough,28.014,-82.1201,39744,557
Keizer,OR,Oregon,Marion,45.0029,-123.0241,39713,2144
New Berlin,WI,Wisconsin,Waukesha,42.9726,-88.1291,39691,420
Chelsea,MA,Massachusetts,Suffolk,42.3959,-71.0325,39690,6917
La Puente,CA,California,Los Angeles,34.0323,-117.9533,39614,4396
Roy,UT,Utah,Weber,41.1715,-112.0485,39613,1880
Security-Widefield,CO,Colorado,El Paso,38.7489,-104.7142,39612,1176
Marlborough,MA,Massachusetts,Middlesex,42.3494,-71.5468,39597,732
Milton,GA,Georgia,Fulton,34.1353,-84.3138,39587,396
Issaquah,WA,Washington,King,47.544,-122.0471,39509,1257
Waipahu,HI,Hawaii,Honolulu,21.3858,-158.0103,39469,5749
Essex,MD,Maryland,Baltimore,39.3024,-76.4457,39437,1644
Bartlesville,OK,Oklahoma,Washington,36.7357,-95.9453,39301,611
Lancaster,TX,Texas,Dallas,32.5922,-96.7737,39228,455
Streamwood,IL,Illinois,Cook,42.0209,-88.1778,39228,1944
Germantown,TN,Tennessee,Shelby,35.0829,-89.7825,39225,757
Annapolis,MD,Maryland,Anne Arundel,38.9706,-76.5047,39223,2100
Carol Stream,IL,Illinois,DuPage,41.9182,-88.1308,39203,1661
Asheboro,NC,North Carolina,Randolph,35.7158,-79.8129,39192,531
Culver City,CA,California,Los Angeles,34.0058,-118.3968,39185,2960
Kalispell,MT,Montana,Flathead,48.2156,-114.3262,39182,789
Arecibo,PR,Puerto Rico,Arecibo,18.4491,-66.7387,39176,975
Lynnwood,WA,Washington,Snohomish,47.8284,-122.3033,39141,1918
Mooresville,NC,North Carolina,Iredell,35.5849,-80.8265,39132,613
Brookfield,WI,Wisconsin,Waukesha,43.064,-88.1231,39115,553
Crestview,FL,Florida,Okaloosa,30.748,-86.5784,39072,606
Horizon West,FL,Florida,Orange,28.4417,-81.6145,39065,458
Clinton,MD,Maryland,Prince George's,38.7499,-76.9063,39018,602
Moses Lake,WA,Washington,Grant,47.128,-119.2761,39002,519
New Castle,PA,Pennsylvania,Lawrence,40.9956,-80.3459,38930,1004
Olive Branch,MS,Mississippi,DeSoto,34.961,-89.8469,38924,403
Enterprise,AL,Alabama,Coffee,31.3276,-85.8459,38914,357
Sun City,AZ,Arizona,Maricopa,33.6165,-112.2819,38877,1040
Frankfort,KY,Kentucky,Franklin,38.1924,-84.8643,38852,725
Northglenn,CO,Colorado,Adams,39.9108,-104.9783,38819,2038
Warren,OH,Ohio,Trumbull,41.239,-80.8174,38752,937
Duncanville,TX,Texas,Dallas,32.646,-96.9127,38751,1335
Hurst,TX,Texas,Tarrant,32.8353,-97.1808,38655,1497
Clermont,FL,Florida,Lake,28.5402,-81.7259,38654,937
Wheeling,IL,Illinois,Cook,42.1308,-87.924,38646,1720
Fort Lee,NJ,New Jersey,Bergen,40.8509,-73.9712,38605,5920
Pacifica,CA,California,San Mateo,37.6112,-122.4781,38546,1175
Lake Worth,FL,Florida,Palm Beach,26.6196,-80.0591,38526,2524
Lebanon,TN,Tennessee,Wilson,36.204,-86.3481,38518,355
Kendall West,FL,Florida,Miami-Dade,25.7065,-80.4388,38433,5396
Land O' Lakes,FL,Florida,Pasco,28.2075,-82.4476,38410,777
Eagle Mountain,UT,Utah,Utah,40.3137,-112.0114,38391,293
Reynoldsburg,OH,Ohio,Franklin,39.9587,-82.7944,38327,1332
Oxford,MS,Mississippi,Lafayette,34.3627,-89.5336,38310,407
Rosenberg,TX,Texas,Fort Bend,29.546,-95.822,38307,401
Martinez,CA,California,Contra Costa,37.9985,-122.116,38297,1170
Pleasant Grove,UT,Utah,Utah,40.3716,-111.7412,38258,1609
La Presa,CA,California,San Diego,32.711,-117.0027,38227,2684
Severna Park,MD,Maryland,Anne Arundel,39.087,-76.5687,38188,891
Huber Heights,OH,Ohio,Montgomery,39.8595,-84.113,38154,663
Stanton,CA,California,Orange,33.8002,-117.9935,38139,4754
East Meadow,NY,New York,Nassau,40.7197,-73.5604,38029,2329
Menomonee Falls,WI,Wisconsin,Waukesha,43.1487,-88.1227,38014,445
Granbury,TX,Texas,Hood,32.4484,-97.7685,37996,309
Waxahachie,TX,Texas,Ellis,32.4032,-96.8444,37988,300
Valrico,FL,Florida,Hillsborough,27.9193,-82.2293,37980,1061
Mission Bend,TX,Texas,Fort Bend,29.6948,-95.6657,37979,3158
Holly Springs,NC,North Carolina,Wake,35.653,-78.8397,37812,856
Butler,PA,Pennsylvania,Butler,40.8616,-79.8962,37796,1829
Albertville,AL,Alabama,Marshall,34.2634,-86.2107,37775,313
London,KY,Kentucky,Laurel,37.1175,-84.0767,37714,269
Egypt Lake-Leto,FL,Florida,Hillsborough,28.0177,-82.5062,37704,2464
Cottage Grove,MN,Minnesota,Washington,44.8161,-92.9274,37604,431
Kailua,HI,Hawaii,Honolulu,21.392,-157.7396,37586,1868
St. Marys,GA,Georgia,Camden,30.7567,-81.5722,37556,314
Mechanicsville,VA,Virginia,Hanover,37.6262,-77.3561,37496,510
Richmond West,FL,Florida,Miami-Dade,25.6105,-80.4297,37486,3469
Cleburne,TX,Texas,Johnson,32.357,-97.4152,37468,340
Valley Stream,NY,New York,Nassau,40.6647,-73.7044,37431,4154
Hanover Park,IL,Illinois,DuPage,41.9819,-88.1447,37426,2279
Oswego,NY,New York,Oswego,43.4516,-76.5005,37420,874
Navarre,FL,Florida,Santa Rosa,30.4174,-86.8907,37362,625
Oregon City,OR,Oregon,Clackamas,45.3415,-122.5927,37339,1459
Winter Springs,FL,Florida,Seminole,28.6889,-81.2704,37312,969
Parkland,WA,Washington,Pierce,47.1417,-122.4376,37303,1666
Pahrump,NV,Nevada,Nye,36.2411,-116.0176,37298,47
Carpentersville,IL,Illinois,Kane,42.1227,-88.2895,37254,1828
Wildomar,CA,California,Riverside,33.6173,-117.2582,37229,606
Greenfield,WI,Wisconsin,Milwaukee,42.9619,-88.0051,37221,1246
Braintree,MA,Massachusetts,Norfolk,42.2039,-71.0022,37190,1043
Rock Island,IL,Illinois,Rock Island,41.4699,-90.5827,37176,850
South Miami Heights,FL,Florida,Miami-Dade,25.5886,-80.3862,37119,2925
Evans,GA,Georgia,Columbia,33.5619,-82.1351,37114,567
West Fargo,ND,North Dakota,Cass,46.8573,-96.9057,37058,892
Mount Juliet,TN,Tennessee,Wilson,36.1991,-86.5114,37029,574
San Juan,TX,Texas,Hidalgo,26.1903,-98.152,37008,1229
Oakton,VA,Virginia,Fairfax,38.8887,-77.3016,36997,1463
Georgetown,KY,Kentucky,Scott,38.2249,-84.5482,36994,810
Portage,IN,Indiana,Porter,41.5866,-87.1792,36988,559
Aventura,FL,Florida,Miami-Dade,25.9565,-80.1372,36987,5398
Owasso,OK,Oklahoma,Tulsa,36.2882,-95.8328,36957,807
Commack,NY,New York,Suffolk,40.8443,-73.2834,36953,1192
Park Ridge,IL,Illinois,Cook,42.0125,-87.8436,36950,2012
Foley,AL,Alabama,Baldwin,30.3983,-87.6649,36921,242
New Albany,IN,Indiana,Floyd,38.3089,-85.8234,36843,923
Benton,AR,Arkansas,Saline,34.5775,-92.5712,36820,625
Meridian,MS,Mississippi,Lauderdale,32.3846,-88.6896,36686,261
Bettendorf,IA,Iowa,Scott,41.5656,-90.4764,36543,662
Dunedin,FL,Florida,Pinellas,28.0329,-82.7863,36537,1355
Hilliard,OH,Ohio,Franklin,40.0353,-83.1578,36534,988
Merritt Island,FL,Florida,Brevard,28.3146,-80.6713,36532,805
Phenix City,AL,Alabama,Russell,32.4588,-85.0251,36487,503
Addison,IL,Illinois,DuPage,41.9314,-88.0085,36482,1431
West Hollywood,CA,California,Los Angeles,34.0882,-118.3718,36475,7461
Roseville,MN,Minnesota,Ramsey,45.0155,-93.1545,36457,1081
Oakville,MO,Missouri,St. Louis,38.4472,-90.3199,36407,885
Tucker,GA,Georgia,DeKalb,33.8436,-84.2021,36395,698
Moorpark,CA,California,Ventura,34.2855,-118.877,36375,1116
Richfield,MN,Minnesota,Hennepin,44.8762,-93.2833,36354,2088
Monrovia,CA,California,Los Angeles,34.165,-117.9921,36331,1028
Kearns,UT,Utah,Salt Lake,40.652,-112.0093,36330,3028
Oak Creek,WI,Wisconsin,Milwaukee,42.8803,-87.9009,36325,493
Lincoln Park,MI,Michigan,Wayne,42.2432,-83.1811,36321,2402
Claremont,CA,California,Los Angeles,34.1259,-117.7153,36266,1048
Oswego,IL,Illinois,Kendall,41.6834,-88.3372,36252,940
Post Falls,"ID",Idaho,Kootenai,47.7213,-116.9385,36250,925
Peachtree City,GA,Georgia,Fayette,33.3943,-84.5712,36223,569
Lauderdale Lakes,FL,Florida,Broward,26.1682,-80.2017,36194,3796
French Valley,CA,California,Riverside,33.5998,-117.1069,36126,1282
Portsmouth,OH,Ohio,Scioto,38.7539,-82.9446,36111,725
Shawnee,OK,Oklahoma,Pottawatomie,35.3529,-96.965,36067,278
Gillette,WY,Wyoming,Campbell,44.2752,-105.4983,36032,538
Tooele,UT,Utah,Tooele,40.5393,-112.3082,36015,577
Prattville,AL,Alabama,Autauga,32.4605,-86.4588,35957,410
Woodburn,OR,Oregon,Marion,45.1473,-122.8603,35941,1737
Watertown Town,MA,Massachusetts,Middlesex,42.37,-71.1774,35939,3470
Calumet City,IL,Illinois,Cook,41.6134,-87.5505,35913,1930
San Juan Capistrano,CA,California,Orange,33.5009,-117.6544,35911,960
Foothill Farms,CA,California,Sacramento,38.6867,-121.3475,35881,3300
Elmont,NY,New York,Nassau,40.7033,-73.7078,35824,4056
Franklin,WI,Wisconsin,Milwaukee,42.8854,-88.0104,35811,399
Temple City,CA,California,Los Angeles,34.1021,-118.0579,35811,3452
Cooper City,FL,Florida,Broward,26.0463,-80.2862,35800,1719
El Mirage,AZ,Arizona,Maricopa,33.5905,-112.3271,35753,1394
Meadow Woods,FL,Florida,Orange,28.3698,-81.3467,35726,1234
LaGrange,GA,Georgia,Troup,33.0274,-85.0384,35721,277
La Vergne,TN,Tennessee,Rutherford,36.0203,-86.5582,35716,561
Middletown,DE,Delaware,New Castle,39.4453,-75.7166,35695,748
Mount Pleasant,MI,Michigan,Isabella,43.5966,-84.7759,35694,1239
Carrollwood,FL,Florida,Hillsborough,28.0577,-82.5149,35686,1494
Junction City,KS,Kansas,Geary,39.0271,-96.8496,35677,746
Inver Grove Heights,MN,Minnesota,Dakota,44.8247,-93.0596,35672,494
Chillum,MD,Maryland,Prince George's,38.9667,-76.979,35557,4039
Monroe,NC,North Carolina,Union,35.0061,-80.5595,35540,452
Randallstown,MD,Maryland,Baltimore,39.3723,-76.8024,35528,1341
Bell,CA,California,Los Angeles,33.9801,-118.1798,35521,5486
Gahanna,OH,Ohio,Franklin,40.0251,-82.8637,35483,1102
Sanford,NC,North Carolina,Lee,35.4874,-79.1772,35467,399
Riviera Beach,FL,Florida,Palm Beach,26.7812,-80.0742,35463,1653
Wildwood,MO,Missouri,St. Louis,38.5799,-90.6699,35432,205
Upper Arlington,OH,Ohio,Franklin,40.0272,-83.0704,35366,1394
Auburn,CA,California,Placer,38.895,-121.0778,35311,763
Plainfield,IN,Indiana,Hendricks,39.6953,-86.3717,35287,528
Westmont,CA,California,Los Angeles,33.9417,-118.3018,35266,7369
Oak Harbor,WA,Washington,Island,48.2965,-122.6333,35228,943
Olney,MD,Maryland,Montgomery,39.1465,-77.0715,35191,839
Manhattan Beach,CA,California,Los Angeles,33.8895,-118.3972,35183,3450
New City,NY,New York,Rockland,41.1543,-73.9909,35101,870
Owings Mills,MD,Maryland,Baltimore,39.4115,-76.7913,35081,1420
La Porte,TX,Texas,Harris,29.6689,-95.0484,34976,724
Englewood,CO,Colorado,Arapahoe,39.6468,-104.9942,34917,2057
Brunswick,OH,Ohio,Medina,41.2464,-81.8198,34880,1042
East Point,GA,Georgia,Fulton,33.6696,-84.4701,34875,916
DeLand,FL,Florida,Volusia,29.0224,-81.2873,34851,714
Martinez,GA,Georgia,Columbia,33.5209,-82.0985,34844,927
Pleasant Hill,CA,California,Contra Costa,37.954,-122.0759,34839,1901
Orangevale,CA,California,Sacramento,38.6881,-121.2209,34824,1172
Merrillville,IN,Indiana,Lake,41.4728,-87.3197,34792,404
Stow,OH,Ohio,Summit,41.1765,-81.4344,34785,786
Buenaventura Lakes,FL,Florida,Osceola,28.3349,-81.3539,34784,2408
San Luis,AZ,Arizona,Yuma,32.4911,-114.7089,34778,393
Oildale,CA,California,Kern,35.4249,-119.0279,34763,2054
Calhoun,GA,Georgia,Gordon,34.4918,-84.9391,34754,426
Leawood,KS,Kansas,Johnson,38.9076,-94.6258,34727,887
Menlo Park,CA,California,San Mateo,37.4686,-122.1672,34698,1338
Sun Prairie,WI,Wisconsin,Dane,43.1827,-89.2358,34661,1071
Dakota Ridge,CO,Colorado,Jefferson,39.6192,-105.1344,34659,1425
Arcata,CA,California,Humboldt,40.8615,-124.0757,34616,759
Lockport,NY,New York,Niagara,43.1698,-78.6956,34561,933
Pullman,WA,Washington,Whitman,46.734,-117.1669,34506,1248
Boardman,OH,Ohio,Mahoning,41.0334,-80.6671,34431,878
Nacogdoches,TX,Texas,Nacogdoches,31.6134,-94.6528,34420,460
Kearney,NE,Nebraska,Buffalo,40.701,-99.0834,34418,904
Vestavia Hills,AL,Alabama,Jefferson,33.4518,-86.7438,34413,668
North Ridgeville,OH,Ohio,Lorain,41.3851,-82.0194,34392,566
Socorro,TX,Texas,El Paso,31.6384,-106.2601,34370,604
Randolph,MA,Massachusetts,Norfolk,42.1778,-71.0539,34362,1349
Norristown,PA,Pennsylvania,Montgomery,40.1224,-75.3398,34341,3771
Montgomery Village,MD,Maryland,Montgomery,39.1783,-77.1957,34332,3335
Redmond,OR,Oregon,Deschutes,44.2631,-121.1798,34240,744
Firestone,CO,Colorado,Weld,40.1563,-104.9494,34230,462
Goshen,IN,Indiana,Elkhart,41.5743,-85.8308,34217,751
Butte,MT,Montana,Silver Bow,45.902,-112.6571,34207,18
Russellville,AR,Arkansas,Pope,35.2763,-93.1383,34205,397
Grass Valley,CA,California,Nevada,39.2237,-121.0521,34196,942
Parkland,FL,Florida,Broward,26.3218,-80.2533,34170,1055
University City,MO,Missouri,St. Louis,38.6657,-90.3315,34165,2244
Midvale,UT,Utah,Salt Lake,40.6148,-111.8928,34124,2228
Golden Glades,FL,Florida,Miami-Dade,25.9129,-80.2013,34109,2725
Franklin,MA,Massachusetts,Norfolk,42.0862,-71.4113,34087,494
Kennesaw,GA,Georgia,Cobb,34.026,-84.6177,34077,1354
Adelanto,CA,California,San Bernardino,34.5815,-117.4397,34049,248
Ken Caryl,CO,Colorado,Jefferson,39.577,-105.1144,34040,1336
Carlsbad,NM,New Mexico,Eddy,32.4011,-104.2389,34031,368
University Place,WA,Washington,Pierce,47.2147,-122.5461,34001,1574
Chester,PA,Pennsylvania,Delaware,39.8456,-75.3718,34000,2716
Douglasville,GA,Georgia,Douglas,33.7384,-84.7065,33992,581
Salisbury,NC,North Carolina,Rowan,35.6656,-80.4909,33988,588
Laramie,WY,Wyoming,Albany,41.3099,-105.6085,33929,688
Lake Stevens,WA,Washington,Snohomish,48.0028,-122.096,33911,1469
Foster City,CA,California,San Mateo,37.5553,-122.2659,33901,3448
Valparaiso,IN,Indiana,Porter,41.4782,-87.0507,33897,802
Fairborn,OH,Ohio,Greene,39.801,-84.0093,33876,897
Estero,FL,Florida,Lee,26.4277,-81.7951,33871,537
Mason,OH,Ohio,Warren,39.3571,-84.3023,33870,679
Cottonwood Heights,UT,Utah,Salt Lake,40.6137,-111.8144,33843,1417
Kaneohe,HI,Hawaii,Honolulu,21.4062,-157.7904,33841,2000
Sonoma,CA,California,Sonoma,38.2902,-122.4598,33831,1551
Beverly Hills,CA,California,Los Angeles,34.0786,-118.4021,33792,2285
Galesburg,IL,Illinois,Knox,40.9506,-90.3763,33767,657
Warsaw,IN,Indiana,Kosciusko,41.2448,-85.8464,33708,437
San Dimas,CA,California,Los Angeles,34.1082,-117.809,33621,863
Glendale Heights,IL,Illinois,DuPage,41.9196,-88.0785,33617,2396
Dana Point,CA,California,Orange,33.4733,-117.6968,33577,1998
Midlothian,TX,Texas,Ellis,32.4668,-96.9892,33532,204
Newark,DE,Delaware,New Castle,39.6776,-75.7573,33515,1408
Alamogordo,NM,New Mexico,Otero,32.8837,-105.9624,33513,577
Alabaster,AL,Alabama,Shelby,33.2198,-86.8225,33487,512
Pikesville,MD,Maryland,Baltimore,39.3893,-76.702,33486,1046
Fair Oaks,VA,Virginia,Fairfax,38.8653,-77.3586,33481,2589
Deer Park,TX,Texas,Harris,29.6898,-95.1151,33474,1234
Long Beach,NY,New York,Nassau,40.5887,-73.666,33454,5824
Woodridge,IL,Illinois,DuPage,41.7368,-88.0408,33432,1335
Bridgeton,NJ,New Jersey,Cumberland,39.4286,-75.2281,33379,1497
Greer,SC,South Carolina,Greenville,34.9313,-82.2315,33373,563
Springville,UT,Utah,Utah,40.1638,-111.6206,33310,897
Saratoga Springs,UT,Utah,Utah,40.3449,-111.9152,33282,562
Copperas Cove,TX,Texas,Coryell,31.1192,-97.914,33235,711
American Fork,UT,Utah,Utah,40.3792,-111.7952,33161,1190
Franklin,NJ,New Jersey,Sussex,41.1101,-74.5886,33153,418
Andover,MN,Minnesota,Anoka,45.2571,-93.3265,33140,377
Matthews,NC,North Carolina,Mecklenburg,35.1195,-80.7101,33138,747
Woodstock,GA,Georgia,Cherokee,34.1026,-84.509,33039,1026
Florence,KY,Kentucky,Boone,38.99,-84.647,33004,1194
Northbrook,IL,Illinois,Cook,42.1292,-87.8353,32958,961
West Little River,FL,Florida,Miami-Dade,25.857,-80.2367,32897,2769
Fair Lawn,NJ,New Jersey,Bergen,40.9359,-74.1177,32896,2473
St. Charles,IL,Illinois,Kane,41.9193,-88.3109,32887,881
Huntington Station,NY,New York,Suffolk,40.8446,-73.405,32866,2317
Fairmont,WV,West Virginia,Marion,39.4768,-80.1491,32847,826
Ridgecrest,CA,California,Kern,35.6308,-117.6621,32684,535
Massillon,OH,Ohio,Stark,40.7838,-81.5254,32584,663
Spanaway,WA,Washington,Pierce,47.0979,-122.4233,32575,1437
Starkville,MS,Mississippi,Oktibbeha,33.4608,-88.8297,32546,388
Harker Heights,TX,Texas,Bell,31.0572,-97.6445,32421,799
Elk Grove Village,IL,Illinois,Cook,42.0063,-87.9921,32400,1076
Kaysville,UT,Utah,Davis,41.029,-111.9456,32390,1190
Lawndale,CA,California,Los Angeles,33.8884,-118.3531,32389,6334
Southlake,TX,Texas,Tarrant,32.9545,-97.1503,32376,572
Ferry Pass,FL,Florida,Escambia,30.5203,-87.1903,32376,896
Savage,MN,Minnesota,Scott,44.7544,-93.3631,32362,801
Des Moines,WA,Washington,King,47.3915,-122.3157,32348,1947
Bethel Park,PA,Pennsylvania,Allegheny,40.3239,-80.0364,32345,1070
Princeton,FL,Florida,Miami-Dade,25.5396,-80.3971,32299,1680
Dania Beach,FL,Florida,Broward,26.0594,-80.1637,32271,1595
Spring Valley,NY,New York,Rockland,41.1151,-74.0486,32261,6195
Bowling Green,OH,Ohio,Wood,41.3773,-83.65,32249,960
Springfield,VA,Virginia,Fairfax,38.7809,-77.1839,32222,1584
East Lake,FL,Florida,Pinellas,28.1205,-82.6868,32169,432
College Park,MD,Maryland,Prince George's,38.996,-76.9337,32163,2213
Coos Bay,OR,Oregon,Coos,43.3789,-124.233,32159,594
Smithfield,NC,North Carolina,Johnston,35.5131,-78.3497,32156,420
Rome,NY,New York,Oneida,43.226,-75.4909,32148,165
Clearfield,UT,Utah,Davis,41.103,-112.0237,32118,1607
Liberty,MO,Missouri,Clay,39.2394,-94.4191,32100,429
Eastpointe,MI,Michigan,Macomb,42.4657,-82.9461,32081,2401
Franklin Square,NY,New York,Nassau,40.7002,-73.6775,32055,4300
Pekin,IL,Illinois,Tazewell,40.5679,-89.6262,32045,848
Westlake,OH,Ohio,Cuyahoga,41.4524,-81.9295,32032,776
Uniondale,NY,New York,Nassau,40.7176,-73.5947,32007,2164
Chillicothe,OH,Ohio,Ross,39.3393,-82.9937,31999,804
La Verne,CA,California,Los Angeles,34.1208,-117.7702,31974,1463
Juneau,AK,Alaska,Juneau,58.4546,-134.1739,31974,4
Prairieville,LA,Louisiana,Ascension,30.3151,-90.9571,31974,561
Placerville,CA,California,El Dorado,38.7308,-120.7978,31943,738
Bel Air North,MD,Maryland,Harford,39.5544,-76.3733,31941,772
Redan,GA,Georgia,DeKalb,33.7394,-84.1644,31873,1522
Martinsville,VA,Virginia,Martinsville,36.6827,-79.8636,31871,442
Pueblo West,CO,Colorado,Pueblo,38.3551,-104.7266,31849,174
Garfield,NJ,New Jersey,Bergen,40.8791,-74.1085,31802,5816
Fallbrook,CA,California,San Diego,33.3693,-117.2259,31701,697
Spring Valley,CA,California,San Diego,32.7316,-116.9766,31650,1664
Hopkinsville,KY,Kentucky,Christian,36.8386,-87.4776,31569,372
Rochester,NH,New Hampshire,Strafford,43.299,-70.9787,31526,270
South Riding,VA,Virginia,Loudoun,38.912,-77.5132,31515,1775
Centereach,NY,New York,Suffolk,40.8696,-73.0808,31493,1392
Milledgeville,GA,Georgia,Baldwin,33.0874,-83.2414,31471,355
Syracuse,UT,Utah,Davis,41.086,-112.0698,31458,1195
Parkville,MD,Maryland,Baltimore,39.3832,-76.5519,31451,2834
Sherwood,AR,Arkansas,Pulaski,34.8508,-92.2028,31436,582
Garner,NC,North Carolina,Wake,35.6934,-78.6196,31407,762
Key West,FL,Florida,Monroe,24.5637,-81.7768,31401,1665
Miami Lakes,FL,Florida,Miami-Dade,25.9125,-80.3214,31367,2140
Petersburg,VA,Virginia,Petersburg,37.2043,-77.3913,31346,532
North Olmsted,OH,Ohio,Cuyahoga,41.415,-81.919,31341,1036
Kahului,HI,Hawaii,Maui,20.8715,-156.4603,31336,841
Wheat Ridge,CO,Colorado,Jefferson,39.7728,-105.1029,31324,1294
Fruit Cove,FL,Florida,St. Johns,30.0972,-81.6176,31314,752
Cibolo,TX,Texas,Guadalupe,29.5639,-98.2123,31281,584
Alliance,OH,Ohio,Stark,40.9107,-81.1189,31255,919
Banning,CA,California,Riverside,33.946,-116.8992,31221,518
Laguna Hills,CA,California,Orange,33.592,-117.6992,31207,1824
Central Islip,NY,New York,Suffolk,40.7837,-73.1945,31205,1694
Athens,AL,Alabama,Limestone,34.7847,-86.951,31187,265
Princeton,NJ,New Jersey,Mercer,40.3563,-74.6693,31187,670
Orcutt,CA,California,Santa Barbara,34.8668,-120.4269,31118,1079
Naugatuck,CT,Connecticut,New Haven,41.489,-73.0518,31108,736
Eldersburg,MD,Maryland,Carroll,39.4041,-76.9529,31108,301
Columbus,MS,Mississippi,Lowndes,33.5088,-88.4096,31084,363
Mundelein,IL,Illinois,Lake,42.2691,-88.0101,31051,1257
Fair Oaks,CA,California,Sacramento,38.6504,-121.2497,31032,1102
San Pablo,CA,California,Contra Costa,37.9628,-122.3425,30990,4550
Rexburg,"ID",Idaho,Madison,43.8224,-111.792,30979,1134
Nogales,AZ,Arizona,Santa Cruz,31.3624,-110.9336,30917,372
Nicholasville,KY,Kentucky,Jessamine,37.8902,-84.5669,30912,823
Goleta,CA,California,Santa Barbara,34.436,-119.8596,30911,1520
Opelika,AL,Alabama,Lee,32.6612,-85.3769,30908,202
Algonquin,IL,Illinois,McHenry,42.1629,-88.3159,30897,969
Marrero,LA,Louisiana,Jefferson,29.8871,-90.1127,30894,1656
Burlingame,CA,California,San Mateo,37.586,-122.3669,30889,2707
Aiken,SC,South Carolina,Aiken,33.531,-81.7268,30869,565
Lawrenceville,GA,Georgia,Gwinnett,33.9523,-83.9931,30834,874
Winter Park,FL,Florida,Orange,28.5987,-81.3438,30825,1361
Lake Magdalene,FL,Florida,Hillsborough,28.0875,-82.4791,30805,1164
Fitchburg,WI,Wisconsin,Dane,42.9859,-89.4255,30792,340
Granger,IN,Indiana,St. Joseph,41.7373,-86.135,30776,477
Wooster,OH,Ohio,Wayne,40.8171,-81.9335,30750,597
Fountain,CO,Colorado,El Paso,38.6886,-104.6829,30735,527
Brooklyn Center,MN,Minnesota,Hennepin,45.0681,-93.3162,30690,1480
Kerrville,TX,Texas,Kerr,30.0398,-99.132,30623,418
Barstow,CA,California,San Bernardino,34.8661,-117.0472,30605,223
Oceanside,NY,New York,Nassau,40.6328,-73.6364,30604,2397
Canton,GA,Georgia,Cherokee,34.2467,-84.49,30528,649
Auburn,NY,New York,Cayuga,42.9338,-76.5684,30507,1212
Crown Point,IN,Indiana,Lake,41.4141,-87.3457,30488,660
Windsor,CO,Colorado,Weld,40.4693,-104.9213,30477,469
Lakeside,FL,Florida,Clay,30.1356,-81.7674,30458,874
Gloucester,MA,Massachusetts,Essex,42.626,-70.6897,30430,448
Gurnee,IL,Illinois,Lake,42.3708,-87.9392,30378,868
Orangeburg,SC,South Carolina,Orangeburg,33.4928,-80.867,30365,542
Holladay,UT,Utah,Salt Lake,40.6599,-111.8226,30325,1379
Fuquay-Varina,NC,North Carolina,Wake,35.5958,-78.7794,30324,770
Chamblee,GA,Georgia,DeKalb,33.8842,-84.3008,30307,1518
Carney,MD,Maryland,Baltimore,39.405,-76.5236,30289,1677
Peru,IL,Illinois,LaSalle,41.3484,-89.137,30287,390
Sterling,VA,Virginia,Loudoun,39.0052,-77.405,30271,2143
Cornelius,NC,North Carolina,Mecklenburg,35.4725,-80.8801,30257,907
North Tonawanda,NY,New York,Niagara,43.0457,-78.8659,30245,1156
Long Branch,NJ,New Jersey,Monmouth,40.2965,-73.9915,30241,2278
Santa Paula,CA,California,Ventura,34.3521,-119.0698,30233,2534
Los Gatos,CA,California,Santa Clara,37.2303,-121.956,30222,1024
South Lake Tahoe,CA,California,El Dorado,38.9393,-119.9828,30188,844
San Carlos,CA,California,San Mateo,37.4982,-122.268,30185,2113
Clinton,IA,Iowa,Clinton,41.8434,-90.2408,30177,275
Saratoga,CA,California,Santa Clara,37.2684,-122.0263,30153,911
Los Altos,CA,California,Santa Clara,37.3685,-122.0966,30089,1792
Ballwin,MO,Missouri,St. Louis,38.5951,-90.55,30082,1293
Atascadero,CA,California,San Luis Obispo,35.4827,-120.6858,30075,445
North Royalton,OH,Ohio,Cuyahoga,41.3138,-81.7452,30068,544
Somerset,KY,Kentucky,Pulaski,37.0815,-84.6091,30053,381
Seguin,TX,Texas,Guadalupe,29.5889,-97.9671,29992,304
Fortuna Foothills,AZ,Arizona,Yuma,32.6616,-114.3973,29955,288
Milford Mill,MD,Maryland,Baltimore,39.3444,-76.7668,29926,1663
Pasadena,MD,Maryland,Anne Arundel,39.1552,-76.5537,29918,773
Stockbridge,GA,Georgia,Henry,33.5253,-84.2294,29904,844
East Liverpool,OH,Ohio,Columbiana,40.6333,-80.5677,29898,870
Rahway,NJ,New Jersey,Union,40.6077,-74.2807,29895,2962
Madison Heights,MI,Michigan,Oakland,42.5073,-83.1034,29886,1628
Williston,ND,North Dakota,Williams,48.1814,-103.6364,29844,483
Bay Shore,NY,New York,Suffolk,40.7317,-73.2505,29799,2130
Eagle,"ID",Idaho,Ada,43.7223,-116.3862,29796,376
Westchester,FL,Florida,Miami-Dade,25.7474,-80.3358,29778,2901
Maryville,TN,Tennessee,Blount,35.7468,-83.9789,29742,665
Walnut,CA,California,Los Angeles,34.0334,-117.8593,29685,1274
Suisun City,CA,California,Solano,38.2473,-122.009,29663,2820
Garden City,KS,Kansas,Finney,37.9754,-100.8529,29659,945
Texarkana,AR,Arkansas,Miller,33.4361,-93.996,29657,273
Kent,OH,Ohio,Portage,41.149,-81.361,29646,1247
West Falls Church,VA,Virginia,Fairfax,38.8648,-77.1878,29623,2291
North Chicago,IL,Illinois,Lake,42.3172,-87.8596,29615,1430
Greenville,MS,Mississippi,Washington,33.385,-91.0514,29613,417
Duluth,GA,Georgia,Gwinnett,34.0053,-84.1492,29609,1118
Aberdeen,WA,Washington,Grays Harbor,46.9757,-123.8094,29609,595
Winona,MN,Minnesota,Winona,44.0505,-91.6684,29601,539
O'Fallon,IL,Illinois,St. Clair,38.5976,-89.9155,29583,743
Drexel Heights,AZ,Arizona,Pima,32.1457,-111.0478,29568,586
Ukiah,CA,California,Mendocino,39.1463,-123.2105,29561,1290
Atwater,CA,California,Merced,37.3543,-120.5981,29559,1873
Golden Gate,FL,Florida,Collier,26.1844,-81.7031,29552,2922
Sanford,ME,Maine,York,43.4244,-70.7573,29535,171
Highland Park,IL,Illinois,Lake,42.1823,-87.8105,29515,930
Westfield,NJ,New Jersey,Union,40.6515,-74.3433,29512,1694
Hermiston,OR,Oregon,Umatilla,45.8323,-119.2858,29512,838
Oak Park,MI,Michigan,Oakland,42.4649,-83.1824,29431,2204
Central,LA,Louisiana,East Baton Rouge,30.5593,-91.0369,29357,182
East Lake-Orient Park,FL,Florida,Hillsborough,27.9971,-82.3653,29346,709
Chicago Heights,IL,Illinois,Cook,41.5101,-87.6345,29322,1101
East Palo Alto,CA,California,San Mateo,37.4671,-122.1352,29314,4489
Newberg,OR,Oregon,Yamhill,45.3075,-122.9601,29225,1560
Lewes,DE,Delaware,Sussex,38.7777,-75.1448,29187,308
North Attleborough,MA,Massachusetts,Bristol,41.9699,-71.3345,29180,597
Washington,UT,Utah,Washington,37.1304,-113.4877,29174,324
Port Chester,NY,New York,Westchester,41.0052,-73.668,29163,4831
Oak Ridge,TN,Tennessee,Anderson,35.9639,-84.2938,29156,132
Crofton,MD,Maryland,Anne Arundel,39.0144,-76.68,29136,1701
Athens,OH,Ohio,Athens,39.3269,-82.0988,29122,964
Laplace,LA,Louisiana,St. John the Baptist,30.0731,-90.4758,29108,537
SeaTac,WA,Washington,King,47.4444,-122.2986,29044,1114
Raytown,MO,Missouri,Jackson,38.9944,-94.4641,28991,1127
Paragould,AR,Arkansas,Greene,36.0555,-90.5149,28986,351
Graham,WA,Washington,Pierce,47.0407,-122.2756,28976,319
Southgate,MI,Michigan,Wayne,42.2047,-83.2057,28959,1626
Harrison,NY,New York,Westchester,41.0233,-73.7192,28943,666
Niles,IL,Illinois,Cook,42.0278,-87.8099,28938,1911
Fernandina Beach,FL,Florida,Nassau,30.6579,-81.4504,28931,444
Big Spring,TX,Texas,Howard,32.2387,-101.4802,28913,569
Bella Vista,AR,Arkansas,Benton,36.4667,-94.2707,28872,246
Milton,PA,Pennsylvania,Northumberland,41.009,-76.8507,28851,749
Morrisville,NC,North Carolina,Wake,35.8367,-78.8348,28846,1277
Greenville,TX,Texas,Hunt,33.1116,-96.1098,28827,344
Casselberry,FL,Florida,Seminole,28.6625,-81.3218,28757,1601
Plattsburgh,NY,New York,Clinton,44.6951,-73.4563,28740,1495
Wasco,CA,California,Kern,35.5938,-119.3671,28710,1180
South Laurel,MD,Maryland,Prince George's,39.0603,-76.8456,28683,1372
Fleming Island,FL,Florida,Clay,30.0988,-81.7124,28676,699
Belle Glade,FL,Florida,Palm Beach,26.692,-80.6672,28665,1094
Lake in the Hills,IL,Illinois,McHenry,42.1913,-88.3476,28634,1082
Agawam,MA,Massachusetts,Hampden,42.0657,-72.6526,28613,473
Shirley,NY,New York,Suffolk,40.7949,-72.8743,28583,961
Burton,MI,Michigan,Genesee,42.9974,-83.6175,28574,472
Geneva,NY,New York,Ontario,42.8644,-76.9827,28563,1158
Schererville,IN,Indiana,Lake,41.486,-87.444,28527,733
Independence,KY,Kentucky,Kenton,38.951,-84.5492,28521,627
West Springfield,MA,Massachusetts,Hampden,42.1253,-72.6503,28517,658
Austintown,OH,Ohio,Mahoning,41.0932,-80.7405,28488,946
Burlington,IA,Iowa,Des Moines,40.8072,-91.1247,28474,662
Shamokin,PA,Pennsylvania,Northumberland,40.7883,-76.555,28457,3218
New Iberia,LA,Louisiana,Iberia,30.0049,-91.8202,28454,986
Northampton,MA,Massachusetts,Hampshire,42.3266,-72.6745,28451,320
Englewood,NJ,New Jersey,Bergen,40.8917,-73.9736,28402,2226
